{
"type": "FeatureCollection",
"crs": { "type": "name", "properties": { "name": "urn:ogc:def:crs:EPSG::4202" } },
"features": [
{ "type": "Feature", "properties": { "name": "Провидения", "place": "town",  "region_id": 87 }, "geometry": { "type": "Point", "coordinates": [ -173.22854380819314, 64.424173453605889 ] } },
{ "type": "Feature", "properties": { "name": "Мамоново", "place": "town",  "region_id": 39 }, "geometry": { "type": "Point", "coordinates": [ 19.941661559963347, 54.462061450541377 ] } },
{ "type": "Feature", "properties": { "name": "Светлый", "place": "town",  "region_id": 39 }, "geometry": { "type": "Point", "coordinates": [ 20.131380348366157, 54.671789139875088 ] } },
{ "type": "Feature", "properties": { "name": "Ладушкин", "place": "town",  "region_id": 39 }, "geometry": { "type": "Point", "coordinates": [ 20.173665627419879, 54.569701579567813 ] } },
{ "type": "Feature", "properties": { "name": "Пионерский", "place": "town",  "region_id": 39 }, "geometry": { "type": "Point", "coordinates": [ 20.226137313464214, 54.946664062976332 ] } },
{ "type": "Feature", "properties": { "name": "Гурьевск", "place": "town",  "region_id": 39 }, "geometry": { "type": "Point", "coordinates": [ 20.611531879503456, 54.771015386313977 ] } },
{ "type": "Feature", "properties": { "name": "Гвардейск", "place": "town",  "region_id": 39 }, "geometry": { "type": "Point", "coordinates": [ 21.072139235833792, 54.646259260788675 ] } },
{ "type": "Feature", "properties": { "name": "Советск", "place": "town",  "region_id": 39 }, "geometry": { "type": "Point", "coordinates": [ 21.891422607732228, 55.076427084848916 ] } },
{ "type": "Feature", "properties": { "name": "Озёрск", "place": "town",  "region_id": 39 }, "geometry": { "type": "Point", "coordinates": [ 22.014522878202325, 54.407168108659555 ] } },
{ "type": "Feature", "properties": { "name": "Гусев", "place": "town",  "region_id": 39 }, "geometry": { "type": "Point", "coordinates": [ 22.201679685688735, 54.590573336301006 ] } },
{ "type": "Feature", "properties": { "name": "Псков", "place": "city",  "region_id": 60 }, "geometry": { "type": "Point", "coordinates": [ 28.334335593584786, 57.815840381280864 ] } },
{ "type": "Feature", "properties": { "name": "Санкт-Петербург", "place": "federal",  "region_id": 47 }, "geometry": { "type": "Point", "coordinates": [ 30.315261928179904, 59.937822905781097 ] } },
{ "type": "Feature", "properties": { "name": "Ковдор", "place": "town",  "region_id": 51 }, "geometry": { "type": "Point", "coordinates": [ 30.474007959882712, 67.561587324557621 ] } },
{ "type": "Feature", "properties": { "name": "Великие Луки", "place": "city",  "region_id": 60 }, "geometry": { "type": "Point", "coordinates": [ 30.527809701205019, 56.340788388786017 ] } },
{ "type": "Feature", "properties": { "name": "Великий Новгород", "place": "city",  "region_id": 53 }, "geometry": { "type": "Point", "coordinates": [ 31.27515275501943, 58.519587499040192 ] } },
{ "type": "Feature", "properties": { "name": "Новозыбков", "place": "town",  "region_id": 32 }, "geometry": { "type": "Point", "coordinates": [ 31.933508954307001, 52.535492991586089 ] } },
{ "type": "Feature", "properties": { "name": "Смоленск", "place": "city",  "region_id": 67 }, "geometry": { "type": "Point", "coordinates": [ 32.054794494071814, 54.792514464281005 ] } },
{ "type": "Feature", "properties": { "name": "Клинцы", "place": "town",  "region_id": 32 }, "geometry": { "type": "Point", "coordinates": [ 32.239925541961576, 52.756918254400276 ] } },
{ "type": "Feature", "properties": { "name": "Заозёрск", "place": "town",  "region_id": 51 }, "geometry": { "type": "Point", "coordinates": [ 32.441130555505325, 69.399486471860442 ] } },
{ "type": "Feature", "properties": { "name": "Полярные Зори", "place": "town",  "region_id": 51 }, "geometry": { "type": "Point", "coordinates": [ 32.495591932839368, 67.372622639228013 ] } },
{ "type": "Feature", "properties": { "name": "Стародуб", "place": "town",  "region_id": 32 }, "geometry": { "type": "Point", "coordinates": [ 32.759911133756702, 52.582851068592532 ] } },
{ "type": "Feature", "properties": { "name": "Видяево", "place": "town",  "region_id": 51 }, "geometry": { "type": "Point", "coordinates": [ 32.80650773638493, 69.316563779857219 ] } },
{ "type": "Feature", "properties": { "name": "Мончегорск", "place": "town",  "region_id": 51 }, "geometry": { "type": "Point", "coordinates": [ 32.93145711527751, 67.938444913907333 ] } },
{ "type": "Feature", "properties": { "name": "Мурманск", "place": "city",  "region_id": 51 }, "geometry": { "type": "Point", "coordinates": [ 33.074736868118507, 68.969220201005157 ] } },
{ "type": "Feature", "properties": { "name": "Снежногорск", "place": "town",  "region_id": 51 }, "geometry": { "type": "Point", "coordinates": [ 33.232112611541581, 69.19047230713791 ] } },
{ "type": "Feature", "properties": { "name": "Оленегорск", "place": "town",  "region_id": 51 }, "geometry": { "type": "Point", "coordinates": [ 33.28235331597012, 68.139281084179316 ] } },
{ "type": "Feature", "properties": { "name": "Десногорск", "place": "town",  "region_id": 67 }, "geometry": { "type": "Point", "coordinates": [ 33.287897739814568, 54.150080295826754 ] } },
{ "type": "Feature", "properties": { "name": "Гаджиево", "place": "town",  "region_id": 51 }, "geometry": { "type": "Point", "coordinates": [ 33.3150321495051, 69.248922137705193 ] } },
{ "type": "Feature", "properties": { "name": "Апатиты", "place": "town",  "region_id": 51 }, "geometry": { "type": "Point", "coordinates": [ 33.404147989426598, 67.567164600908413 ] } },
{ "type": "Feature", "properties": { "name": "Североморск", "place": "town",  "region_id": 51 }, "geometry": { "type": "Point", "coordinates": [ 33.416404677902243, 69.067722338859468 ] } },
{ "type": "Feature", "properties": { "name": "Полярный", "place": "town",  "region_id": 51 }, "geometry": { "type": "Point", "coordinates": [ 33.4455849142782, 69.198080571256909 ] } },
{ "type": "Feature", "properties": { "name": "Кировск", "place": "town",  "region_id": 51 }, "geometry": { "type": "Point", "coordinates": [ 33.663495182250273, 67.613672784453158 ] } },
{ "type": "Feature", "properties": { "name": "Озёрный", "place": "town",  "region_id": 69 }, "geometry": { "type": "Point", "coordinates": [ 33.686433399489232, 57.866495246603122 ] } },
{ "type": "Feature", "properties": { "name": "Сельцо", "place": "town",  "region_id": 32 }, "geometry": { "type": "Point", "coordinates": [ 34.100384446608416, 53.368386631608068 ] } },
{ "type": "Feature", "properties": { "name": "Ржев", "place": "town",  "region_id": 69 }, "geometry": { "type": "Point", "coordinates": [ 34.329905734600139, 56.25769225448289 ] } },
{ "type": "Feature", "properties": { "name": "Брянск", "place": "city",  "region_id": 32 }, "geometry": { "type": "Point", "coordinates": [ 34.366153187992154, 53.240764651020115 ] } },
{ "type": "Feature", "properties": { "name": "Петрозаводск", "place": "city",  "region_id": 10 }, "geometry": { "type": "Point", "coordinates": [ 34.389746448750607, 61.788512840650668 ] } },
{ "type": "Feature", "properties": { "name": "Фокино", "place": "town",  "region_id": 32 }, "geometry": { "type": "Point", "coordinates": [ 34.415218278128876, 53.451073083197279 ] } },
{ "type": "Feature", "properties": { "name": "Вышний Волочёк", "place": "town",  "region_id": 69 }, "geometry": { "type": "Point", "coordinates": [ 34.571143643930931, 57.586741656853363 ] } },
{ "type": "Feature", "properties": { "name": "Торжок", "place": "town",  "region_id": 69 }, "geometry": { "type": "Point", "coordinates": [ 34.973104619759575, 57.039228599005426 ] } },
{ "type": "Feature", "properties": { "name": "Железногорск", "place": "town",  "region_id": 46 }, "geometry": { "type": "Point", "coordinates": [ 35.351233363313725, 52.329024350321347 ] } },
{ "type": "Feature", "properties": { "name": "Курчатов", "place": "town",  "region_id": 46 }, "geometry": { "type": "Point", "coordinates": [ 35.658588639988352, 51.657866479695535 ] } },
{ "type": "Feature", "properties": { "name": "Тверь", "place": "city",  "region_id": 69 }, "geometry": { "type": "Point", "coordinates": [ 35.920528855310245, 56.85710949262414 ] } },
{ "type": "Feature", "properties": { "name": "Орёл", "place": "city",  "region_id": 57 }, "geometry": { "type": "Point", "coordinates": [ 36.068955966746103, 52.966952465980107 ] } },
{ "type": "Feature", "properties": { "name": "Курск", "place": "city",  "region_id": 46 }, "geometry": { "type": "Point", "coordinates": [ 36.179310117050491, 51.737835754267167 ] } },
{ "type": "Feature", "properties": { "name": "Калуга", "place": "city",  "region_id": 40 }, "geometry": { "type": "Point", "coordinates": [ 36.259508957574553, 54.508527300468401 ] } },
{ "type": "Feature", "properties": { "name": "Мценск", "place": "town",  "region_id": 57 }, "geometry": { "type": "Point", "coordinates": [ 36.575891342117735, 53.277211482704139 ] } },
{ "type": "Feature", "properties": { "name": "Белгород", "place": "city",  "region_id": 31 }, "geometry": { "type": "Point", "coordinates": [ 36.586632223199572, 50.593696449018097 ] } },
{ "type": "Feature", "properties": { "name": "Обнинск", "place": "city",  "region_id": 40 }, "geometry": { "type": "Point", "coordinates": [ 36.611596815485711, 55.093596633838096 ] } },
{ "type": "Feature", "properties": { "name": "Щигры", "place": "town",  "region_id": 46 }, "geometry": { "type": "Point", "coordinates": [ 36.912874882568559, 51.869225211068297 ] } },
{ "type": "Feature", "properties": { "name": "Алексин", "place": "town",  "region_id": 71 }, "geometry": { "type": "Point", "coordinates": [ 37.066392513170463, 54.501229853172973 ] } },
{ "type": "Feature", "properties": { "name": "Анапа", "place": "city",  "region_id": 23 }, "geometry": { "type": "Point", "coordinates": [ 37.316577622762345, 44.892653204732817 ] } },
{ "type": "Feature", "properties": { "name": "Кимры", "place": "town",  "region_id": 69 }, "geometry": { "type": "Point", "coordinates": [ 37.351750901006234, 56.88093658514947 ] } },
{ "type": "Feature", "properties": { "name": "Губкин", "place": "town",  "region_id": 31 }, "geometry": { "type": "Point", "coordinates": [ 37.534326951873247, 51.282115459731081 ] } },
{ "type": "Feature", "properties": { "name": "Ливны", "place": "town",  "region_id": 57 }, "geometry": { "type": "Point", "coordinates": [ 37.608510080542665, 52.423860518920783 ] } },
{ "type": "Feature", "properties": { "name": "Тула", "place": "city",  "region_id": 71 }, "geometry": { "type": "Point", "coordinates": [ 37.615526407194032, 54.192244468396851 ] } },
{ "type": "Feature", "properties": { "name": "Москва", "place": "federal",  "region_id": 50 }, "geometry": { "type": "Point", "coordinates": [ 37.618351685670106, 55.750062241711504 ] } },
{ "type": "Feature", "properties": { "name": "Новороссийск", "place": "city",  "region_id": 23 }, "geometry": { "type": "Point", "coordinates": [ 37.768749652856847, 44.72233895291312 ] } },
{ "type": "Feature", "properties": { "name": "Старый Оскол", "place": "city",  "region_id": 31 }, "geometry": { "type": "Point", "coordinates": [ 37.832863386850789, 51.296440430122075 ] } },
{ "type": "Feature", "properties": { "name": "Череповец", "place": "city",  "region_id": 35 }, "geometry": { "type": "Point", "coordinates": [ 37.916006775315779, 59.127152248042144 ] } },
{ "type": "Feature", "properties": { "name": "Геленджик", "place": "town",  "region_id": 23 }, "geometry": { "type": "Point", "coordinates": [ 38.076430585733313, 44.559406010440036 ] } },
{ "type": "Feature", "properties": { "name": "Ефремов", "place": "town",  "region_id": 71 }, "geometry": { "type": "Point", "coordinates": [ 38.116226885847155, 53.140276677712706 ] } },
{ "type": "Feature", "properties": { "name": "Новомосковск", "place": "city",  "region_id": 71 }, "geometry": { "type": "Point", "coordinates": [ 38.2905761349245, 54.009431877692606 ] } },
{ "type": "Feature", "properties": { "name": "Донской", "place": "town",  "region_id": 71 }, "geometry": { "type": "Point", "coordinates": [ 38.317969872493236, 53.964069040886322 ] } },
{ "type": "Feature", "properties": { "name": "Елец", "place": "city",  "region_id": 48 }, "geometry": { "type": "Point", "coordinates": [ 38.488087864893942, 52.612224371898598 ] } },
{ "type": "Feature", "properties": { "name": "Рыбинск", "place": "city",  "region_id": 76 }, "geometry": { "type": "Point", "coordinates": [ 38.834228352822237, 58.048822597713077 ] } },
{ "type": "Feature", "properties": { "name": "Переславль-Залесский", "place": "town",  "region_id": 76 }, "geometry": { "type": "Point", "coordinates": [ 38.845882490475908, 56.735048468109618 ] } },
{ "type": "Feature", "properties": { "name": "Таганрог", "place": "city",  "region_id": 61 }, "geometry": { "type": "Point", "coordinates": [ 38.903006561756918, 47.212077722283951 ] } },
{ "type": "Feature", "properties": { "name": "Краснодар", "place": "city",  "region_id": 23 }, "geometry": { "type": "Point", "coordinates": [ 38.975357245755191, 45.033815953432025 ] } },
{ "type": "Feature", "properties": { "name": "Горячий Ключ", "place": "town",  "region_id": 23 }, "geometry": { "type": "Point", "coordinates": [ 39.135987888624598, 44.632614963791255 ] } },
{ "type": "Feature", "properties": { "name": "Адыгейск", "place": "town",  "region_id": 1 }, "geometry": { "type": "Point", "coordinates": [ 39.19060279733359, 44.881760559542037 ] } },
{ "type": "Feature", "properties": { "name": "Воронеж", "place": "city",  "region_id": 36 }, "geometry": { "type": "Point", "coordinates": [ 39.212565022106745, 51.653286172383446 ] } },
{ "type": "Feature", "properties": { "name": "Нововоронеж", "place": "town",  "region_id": 36 }, "geometry": { "type": "Point", "coordinates": [ 39.215622872784934, 51.307454734534971 ] } },
{ "type": "Feature", "properties": { "name": "Азов", "place": "town",  "region_id": 61 }, "geometry": { "type": "Point", "coordinates": [ 39.417696932894316, 47.105380964427873 ] } },
{ "type": "Feature", "properties": { "name": "Островной", "place": "town",  "region_id": 51 }, "geometry": { "type": "Point", "coordinates": [ 39.512384243107164, 68.05300000368689 ] } },
{ "type": "Feature", "properties": { "name": "Скопин", "place": "town",  "region_id": 62 }, "geometry": { "type": "Point", "coordinates": [ 39.549666527206419, 53.821535578963555 ] } },
{ "type": "Feature", "properties": { "name": "Липецк", "place": "city",  "region_id": 48 }, "geometry": { "type": "Point", "coordinates": [ 39.593289696361119, 52.60259996360216 ] } },
{ "type": "Feature", "properties": { "name": "Ростов-на-Дону", "place": "federal",  "region_id": 61 }, "geometry": { "type": "Point", "coordinates": [ 39.701905072094718, 47.223249951906155 ] } },
{ "type": "Feature", "properties": { "name": "Сочи", "place": "city",  "region_id": 23 }, "geometry": { "type": "Point", "coordinates": [ 39.722738643510311, 43.583864172654152 ] } },
{ "type": "Feature", "properties": { "name": "Батайск", "place": "city",  "region_id": 61 }, "geometry": { "type": "Point", "coordinates": [ 39.741965859698048, 47.13691686115267 ] } },
{ "type": "Feature", "properties": { "name": "Рязань", "place": "city",  "region_id": 62 }, "geometry": { "type": "Point", "coordinates": [ 39.742087635867478, 54.627993628237668 ] } },
{ "type": "Feature", "properties": { "name": "Северодвинск", "place": "city",  "region_id": 29 }, "geometry": { "type": "Point", "coordinates": [ 39.823812391305118, 64.561837687102724 ] } },
{ "type": "Feature", "properties": { "name": "Вологда", "place": "city",  "region_id": 35 }, "geometry": { "type": "Point", "coordinates": [ 39.892820733610897, 59.217337117727972 ] } },
{ "type": "Feature", "properties": { "name": "Ярославль", "place": "city",  "region_id": 76 }, "geometry": { "type": "Point", "coordinates": [ 39.892928357903081, 57.624834907003368 ] } },
{ "type": "Feature", "properties": { "name": "Новошахтинск", "place": "city",  "region_id": 61 }, "geometry": { "type": "Point", "coordinates": [ 39.935602377252131, 47.754215185455536 ] } },
{ "type": "Feature", "properties": { "name": "Гуково", "place": "town",  "region_id": 61 }, "geometry": { "type": "Point", "coordinates": [ 39.943802133834339, 48.05142268677853 ] } },
{ "type": "Feature", "properties": { "name": "Донецк", "place": "town",  "region_id": 61 }, "geometry": { "type": "Point", "coordinates": [ 39.950557149004467, 48.336679787373313 ] } },
{ "type": "Feature", "properties": { "name": "Новочеркасск", "place": "city",  "region_id": 61 }, "geometry": { "type": "Point", "coordinates": [ 40.101594129965434, 47.409049872569717 ] } },
{ "type": "Feature", "properties": { "name": "Майкоп", "place": "city",  "region_id": 1 }, "geometry": { "type": "Point", "coordinates": [ 40.103669852427103, 44.604591769575563 ] } },
{ "type": "Feature", "properties": { "name": "Зверево", "place": "town",  "region_id": 61 }, "geometry": { "type": "Point", "coordinates": [ 40.118164561008498, 48.019038777563807 ] } },
{ "type": "Feature", "properties": { "name": "Шахты", "place": "city",  "region_id": 61 }, "geometry": { "type": "Point", "coordinates": [ 40.211173348348154, 47.710308415354454 ] } },
{ "type": "Feature", "properties": { "name": "Каменск-Шахтинский", "place": "town",  "region_id": 61 }, "geometry": { "type": "Point", "coordinates": [ 40.26466744854222, 48.319474579960364 ] } },
{ "type": "Feature", "properties": { "name": "Мирный", "place": "town",  "region_id": 29 }, "geometry": { "type": "Point", "coordinates": [ 40.328132451852994, 62.760846737174475 ] } },
{ "type": "Feature", "properties": { "name": "Радужный", "place": "town",  "region_id": 33 }, "geometry": { "type": "Point", "coordinates": [ 40.32899641115322, 55.992394381700763 ] } },
{ "type": "Feature", "properties": { "name": "Владимир", "place": "city",  "region_id": 33 }, "geometry": { "type": "Point", "coordinates": [ 40.407072004763087, 56.127326749932706 ] } },
{ "type": "Feature", "properties": { "name": "Мичуринск", "place": "town",  "region_id": 68 }, "geometry": { "type": "Point", "coordinates": [ 40.478470785952183, 52.895415726672766 ] } },
{ "type": "Feature", "properties": { "name": "Архангельск", "place": "city",  "region_id": 29 }, "geometry": { "type": "Point", "coordinates": [ 40.53657816243458, 64.541538462888809 ] } },
{ "type": "Feature", "properties": { "name": "Тейково", "place": "town",  "region_id": 37 }, "geometry": { "type": "Point", "coordinates": [ 40.540127907808085, 56.853917939422793 ] } },
{ "type": "Feature", "properties": { "name": "Гусь-Хрустальный", "place": "town",  "region_id": 33 }, "geometry": { "type": "Point", "coordinates": [ 40.670413238654362, 55.613430542931759 ] } },
{ "type": "Feature", "properties": { "name": "Новодвинск", "place": "town",  "region_id": 29 }, "geometry": { "type": "Point", "coordinates": [ 40.793241844483369, 64.417726990144487 ] } },
{ "type": "Feature", "properties": { "name": "Кострома", "place": "city",  "region_id": 44 }, "geometry": { "type": "Point", "coordinates": [ 40.926404358888853, 57.766374439762174 ] } },
{ "type": "Feature", "properties": { "name": "Иваново", "place": "city",  "region_id": 37 }, "geometry": { "type": "Point", "coordinates": [ 40.973265025574804, 56.996890012859986 ] } },
{ "type": "Feature", "properties": { "name": "Кохма", "place": "town",  "region_id": 37 }, "geometry": { "type": "Point", "coordinates": [ 41.093462284424128, 56.929989395993516 ] } },
{ "type": "Feature", "properties": { "name": "Армавир", "place": "city",  "region_id": 23 }, "geometry": { "type": "Point", "coordinates": [ 41.124812674182685, 44.997083756256053 ] } },
{ "type": "Feature", "properties": { "name": "Волгореченск", "place": "town",  "region_id": 44 }, "geometry": { "type": "Point", "coordinates": [ 41.154550137764552, 57.439948283456111 ] } },
{ "type": "Feature", "properties": { "name": "Ковров", "place": "city",  "region_id": 33 }, "geometry": { "type": "Point", "coordinates": [ 41.311194107009847, 56.373044490257712 ] } },
{ "type": "Feature", "properties": { "name": "Шуя", "place": "town",  "region_id": 37 }, "geometry": { "type": "Point", "coordinates": [ 41.379113100151542, 56.842544654719276 ] } },
{ "type": "Feature", "properties": { "name": "Касимов", "place": "town",  "region_id": 62 }, "geometry": { "type": "Point", "coordinates": [ 41.394707868081319, 54.938122686804761 ] } },
{ "type": "Feature", "properties": { "name": "Тамбов", "place": "city",  "region_id": 68 }, "geometry": { "type": "Point", "coordinates": [ 41.448241857177436, 52.72801695302681 ] } },
{ "type": "Feature", "properties": { "name": "Котовск", "place": "town",  "region_id": 68 }, "geometry": { "type": "Point", "coordinates": [ 41.499019516705594, 52.585455253869441 ] } },
{ "type": "Feature", "properties": { "name": "Буй", "place": "town",  "region_id": 44 }, "geometry": { "type": "Point", "coordinates": [ 41.532550025910368, 58.480060808608364 ] } },
{ "type": "Feature", "properties": { "name": "Моршанск", "place": "town",  "region_id": 68 }, "geometry": { "type": "Point", "coordinates": [ 41.812625728381832, 53.441322106415512 ] } },
{ "type": "Feature", "properties": { "name": "Рассказово", "place": "town",  "region_id": 68 }, "geometry": { "type": "Point", "coordinates": [ 41.87852910237509, 52.657117591325452 ] } },
{ "type": "Feature", "properties": { "name": "Карачаевск", "place": "town",  "region_id": 9 }, "geometry": { "type": "Point", "coordinates": [ 41.911551289946608, 43.769945006446662 ] } },
{ "type": "Feature", "properties": { "name": "Вичуга", "place": "town",  "region_id": 37 }, "geometry": { "type": "Point", "coordinates": [ 41.924051659137575, 57.218671084956583 ] } },
{ "type": "Feature", "properties": { "name": "Сасово", "place": "town",  "region_id": 62 }, "geometry": { "type": "Point", "coordinates": [ 41.926159035435902, 54.352347708763219 ] } },
{ "type": "Feature", "properties": { "name": "Невинномысск", "place": "city",  "region_id": 26 }, "geometry": { "type": "Point", "coordinates": [ 41.940436800976315, 44.631742963969053 ] } },
{ "type": "Feature", "properties": { "name": "Ставрополь", "place": "city",  "region_id": 26 }, "geometry": { "type": "Point", "coordinates": [ 41.968659487206004, 45.041712416720195 ] } },
{ "type": "Feature", "properties": { "name": "Урюпинск", "place": "town",  "region_id": 34 }, "geometry": { "type": "Point", "coordinates": [ 42.004723706966715, 50.795505170467258 ] } },
{ "type": "Feature", "properties": { "name": "Муром", "place": "city",  "region_id": 33 }, "geometry": { "type": "Point", "coordinates": [ 42.044201784362606, 55.572236936780406 ] } },
{ "type": "Feature", "properties": { "name": "Черкесск", "place": "city",  "region_id": 9 }, "geometry": { "type": "Point", "coordinates": [ 42.05633189590413, 44.223411372925661 ] } },
{ "type": "Feature", "properties": { "name": "Борисоглебск", "place": "town",  "region_id": 36 }, "geometry": { "type": "Point", "coordinates": [ 42.074699348009297, 51.366427609815936 ] } },
{ "type": "Feature", "properties": { "name": "Волгодонск", "place": "city",  "region_id": 61 }, "geometry": { "type": "Point", "coordinates": [ 42.138378862750251, 47.52748000994967 ] } },
{ "type": "Feature", "properties": { "name": "Кинешма", "place": "town",  "region_id": 37 }, "geometry": { "type": "Point", "coordinates": [ 42.139581394670842, 57.441551482320229 ] } },
{ "type": "Feature", "properties": { "name": "Выкса", "place": "town",  "region_id": 52 }, "geometry": { "type": "Point", "coordinates": [ 42.169679815073152, 55.318961071954384 ] } },
{ "type": "Feature", "properties": { "name": "Навашино", "place": "town",  "region_id": 52 }, "geometry": { "type": "Point", "coordinates": [ 42.18816961074711, 55.542507117278397 ] } },
{ "type": "Feature", "properties": { "name": "Уварово", "place": "town",  "region_id": 68 }, "geometry": { "type": "Point", "coordinates": [ 42.257919938095924, 51.988258678518662 ] } },
{ "type": "Feature", "properties": { "name": "Галич", "place": "town",  "region_id": 44 }, "geometry": { "type": "Point", "coordinates": [ 42.346842097893074, 58.379700983672109 ] } },
{ "type": "Feature", "properties": { "name": "Кулебаки", "place": "town",  "region_id": 52 }, "geometry": { "type": "Point", "coordinates": [ 42.511366823311306, 55.42772579782585 ] } },
{ "type": "Feature", "properties": { "name": "Кисловодск", "place": "city",  "region_id": 26 }, "geometry": { "type": "Point", "coordinates": [ 42.723254074997357, 43.91274569332527 ] } },
{ "type": "Feature", "properties": { "name": "Ессентуки", "place": "city",  "region_id": 26 }, "geometry": { "type": "Point", "coordinates": [ 42.856048618690636, 44.045226776786208 ] } },
{ "type": "Feature", "properties": { "name": "Лермонтов", "place": "town",  "region_id": 26 }, "geometry": { "type": "Point", "coordinates": [ 42.972735764946997, 44.103228216338806 ] } },
{ "type": "Feature", "properties": { "name": "Железноводск", "place": "town",  "region_id": 26 }, "geometry": { "type": "Point", "coordinates": [ 43.00861758283402, 44.140791755096508 ] } },
{ "type": "Feature", "properties": { "name": "Пятигорск", "place": "federal",  "region_id": 26 }, "geometry": { "type": "Point", "coordinates": [ 43.066204006379017, 44.03947180863014 ] } },
{ "type": "Feature", "properties": { "name": "Минеральные Воды", "place": "town",  "region_id": 26 }, "geometry": { "type": "Point", "coordinates": [ 43.134507939585497, 44.209126440662324 ] } },
{ "type": "Feature", "properties": { "name": "Сокольское", "place": "town",  "region_id": 52 }, "geometry": { "type": "Point", "coordinates": [ 43.16307448631359, 57.140920023094843 ] } },
{ "type": "Feature", "properties": { "name": "Михайловка", "place": "town",  "region_id": 34 }, "geometry": { "type": "Point", "coordinates": [ 43.233893402643055, 50.078040556321447 ] } },
{ "type": "Feature", "properties": { "name": "Чкаловск", "place": "town",  "region_id": 52 }, "geometry": { "type": "Point", "coordinates": [ 43.242774226503961, 56.763365281517054 ] } },
{ "type": "Feature", "properties": { "name": "Саров", "place": "town",  "region_id": 52 }, "geometry": { "type": "Point", "coordinates": [ 43.334073072997278, 54.933066312206719 ] } },
{ "type": "Feature", "properties": { "name": "Дзержинск", "place": "city",  "region_id": 52 }, "geometry": { "type": "Point", "coordinates": [ 43.461189302709151, 56.236661700590169 ] } },
{ "type": "Feature", "properties": { "name": "Георгиевск", "place": "town",  "region_id": 26 }, "geometry": { "type": "Point", "coordinates": [ 43.473162236482985, 44.147180174096718 ] } },
{ "type": "Feature", "properties": { "name": "Баксан", "place": "town",  "region_id": 7 }, "geometry": { "type": "Point", "coordinates": [ 43.537181383368981, 43.675144053212186 ] } },
{ "type": "Feature", "properties": { "name": "Нальчик", "place": "city",  "region_id": 7 }, "geometry": { "type": "Point", "coordinates": [ 43.618886455402503, 43.49146326471795 ] } },
{ "type": "Feature", "properties": { "name": "Фролово", "place": "town",  "region_id": 34 }, "geometry": { "type": "Point", "coordinates": [ 43.653447272503463, 49.762978444114133 ] } },
{ "type": "Feature", "properties": { "name": "Первомайск", "place": "town",  "region_id": 52 }, "geometry": { "type": "Point", "coordinates": [ 43.804513308927575, 54.864191079514313 ] } },
{ "type": "Feature", "properties": { "name": "Арзамас", "place": "city",  "region_id": 52 }, "geometry": { "type": "Point", "coordinates": [ 43.83794480425982, 55.396940966917477 ] } },
{ "type": "Feature", "properties": { "name": "Нижний Новгород", "place": "federal",  "region_id": 52 }, "geometry": { "type": "Point", "coordinates": [ 44.006719452701809, 56.326330538654062 ] } },
{ "type": "Feature", "properties": { "name": "Прохладный", "place": "town",  "region_id": 7 }, "geometry": { "type": "Point", "coordinates": [ 44.014328304621337, 43.757079553620393 ] } },
{ "type": "Feature", "properties": { "name": "Бор", "place": "town",  "region_id": 52 }, "geometry": { "type": "Point", "coordinates": [ 44.079095961473683, 56.353177683811879 ] } },
{ "type": "Feature", "properties": { "name": "Элиста", "place": "city",  "region_id": 8 }, "geometry": { "type": "Point", "coordinates": [ 44.269686805229135, 46.305394344335284 ] } },
{ "type": "Feature", "properties": { "name": "Семёнов", "place": "town",  "region_id": 52 }, "geometry": { "type": "Point", "coordinates": [ 44.490958405042093, 56.786795962534171 ] } },
{ "type": "Feature", "properties": { "name": "Волгоград", "place": "city",  "region_id": 34 }, "geometry": { "type": "Point", "coordinates": [ 44.51628033052917, 48.709081734923814 ] } },
{ "type": "Feature", "properties": { "name": "Малгобек", "place": "town",  "region_id": 6 }, "geometry": { "type": "Point", "coordinates": [ 44.587226192294203, 43.508442020132527 ] } },
{ "type": "Feature", "properties": { "name": "Владикавказ", "place": "city",  "region_id": 15 }, "geometry": { "type": "Point", "coordinates": [ 44.681614881100231, 43.022985668851639 ] } },
{ "type": "Feature", "properties": { "name": "Мантурово", "place": "town",  "region_id": 44 }, "geometry": { "type": "Point", "coordinates": [ 44.763268846665703, 58.331959246090619 ] } },
{ "type": "Feature", "properties": { "name": "Назрань", "place": "city",  "region_id": 6 }, "geometry": { "type": "Point", "coordinates": [ 44.765409498910309, 43.216169327541685 ] } },
{ "type": "Feature", "properties": { "name": "Волжский", "place": "city",  "region_id": 34 }, "geometry": { "type": "Point", "coordinates": [ 44.777454670090442, 48.780508278997253 ] } },
{ "type": "Feature", "properties": { "name": "Магас", "place": "town",  "region_id": 6 }, "geometry": { "type": "Point", "coordinates": [ 44.808698424041324, 43.167680165883013 ] } },
{ "type": "Feature", "properties": { "name": "Карабулак", "place": "town",  "region_id": 6 }, "geometry": { "type": "Point", "coordinates": [ 44.909831425161578, 43.3078823097187 ] } },
{ "type": "Feature", "properties": { "name": "Пенза", "place": "city",  "region_id": 58 }, "geometry": { "type": "Point", "coordinates": [ 44.999429110968485, 53.198429916835018 ] } },
{ "type": "Feature", "properties": { "name": "Заречный", "place": "town",  "region_id": 58 }, "geometry": { "type": "Point", "coordinates": [ 45.168699066798673, 53.194444157724888 ] } },
{ "type": "Feature", "properties": { "name": "Саранск", "place": "city",  "region_id": 13 }, "geometry": { "type": "Point", "coordinates": [ 45.183244641083753, 54.185145758638456 ] } },
{ "type": "Feature", "properties": { "name": "Камышин", "place": "city",  "region_id": 34 }, "geometry": { "type": "Point", "coordinates": [ 45.404243677952046, 50.079256175379172 ] } },
{ "type": "Feature", "properties": { "name": "Шарья", "place": "town",  "region_id": 44 }, "geometry": { "type": "Point", "coordinates": [ 45.518947600882164, 58.368161979090438 ] } },
{ "type": "Feature", "properties": { "name": "Светлый", "place": "town",  "region_id": 64 }, "geometry": { "type": "Point", "coordinates": [ 45.622199348991217, 51.672131555877321 ] } },
{ "type": "Feature", "properties": { "name": "Южно-Сухокумск", "place": "town",  "region_id": 5 }, "geometry": { "type": "Point", "coordinates": [ 45.644609092659266, 44.660628571788884 ] } },
{ "type": "Feature", "properties": { "name": "Грозный", "place": "city",  "region_id": 20 }, "geometry": { "type": "Point", "coordinates": [ 45.698445768615223, 43.315238729333927 ] } },
{ "type": "Feature", "properties": { "name": "Знаменск", "place": "town",  "region_id": 30 }, "geometry": { "type": "Point", "coordinates": [ 45.725077663169095, 48.587239145100931 ] } },
{ "type": "Feature", "properties": { "name": "Аргун", "place": "town",  "region_id": 20 }, "geometry": { "type": "Point", "coordinates": [ 45.868365096277067, 43.293439346437808 ] } },
{ "type": "Feature", "properties": { "name": "Саратов", "place": "city",  "region_id": 64 }, "geometry": { "type": "Point", "coordinates": [ 46.034097790766054, 51.528441557772759 ] } },
{ "type": "Feature", "properties": { "name": "Шумерля", "place": "town",  "region_id": 21 }, "geometry": { "type": "Point", "coordinates": [ 46.418032884514822, 55.49696698915325 ] } },
{ "type": "Feature", "properties": { "name": "Козьмодемьянск", "place": "town",  "region_id": 12 }, "geometry": { "type": "Point", "coordinates": [ 46.545631400840463, 56.330892276915648 ] } },
{ "type": "Feature", "properties": { "name": "Хасавюрт", "place": "city",  "region_id": 5 }, "geometry": { "type": "Point", "coordinates": [ 46.580302584676652, 43.241141817345991 ] } },
{ "type": "Feature", "properties": { "name": "Кузнецк", "place": "town",  "region_id": 58 }, "geometry": { "type": "Point", "coordinates": [ 46.600106898496932, 53.110949001146544 ] } },
{ "type": "Feature", "properties": { "name": "Шахунья", "place": "town",  "region_id": 52 }, "geometry": { "type": "Point", "coordinates": [ 46.615374871671811, 57.67157621760196 ] } },
{ "type": "Feature", "properties": { "name": "Котлас", "place": "town",  "region_id": 29 }, "geometry": { "type": "Point", "coordinates": [ 46.646895370818648, 61.250654776405085 ] } },
{ "type": "Feature", "properties": { "name": "Кизляр", "place": "town",  "region_id": 5 }, "geometry": { "type": "Point", "coordinates": [ 46.711933823376917, 43.842169530115704 ] } },
{ "type": "Feature", "properties": { "name": "Кизилюрт", "place": "town",  "region_id": 5 }, "geometry": { "type": "Point", "coordinates": [ 46.870782943885118, 43.198301376255998 ] } },
{ "type": "Feature", "properties": { "name": "Буйнакск", "place": "town",  "region_id": 5 }, "geometry": { "type": "Point", "coordinates": [ 47.128058554403651, 42.821560053083054 ] } },
{ "type": "Feature", "properties": { "name": "Коряжма", "place": "town",  "region_id": 29 }, "geometry": { "type": "Point", "coordinates": [ 47.160008021415159, 61.313671177631385 ] } },
{ "type": "Feature", "properties": { "name": "Шиханы", "place": "town",  "region_id": 64 }, "geometry": { "type": "Point", "coordinates": [ 47.197847724963331, 52.113270021240453 ] } },
{ "type": "Feature", "properties": { "name": "Чебоксары", "place": "city",  "region_id": 21 }, "geometry": { "type": "Point", "coordinates": [ 47.244807201063473, 56.129632725706827 ] } },
{ "type": "Feature", "properties": { "name": "Новочебоксарск", "place": "city",  "region_id": 21 }, "geometry": { "type": "Point", "coordinates": [ 47.48635218845898, 56.112462095533871 ] } },
{ "type": "Feature", "properties": { "name": "Махачкала", "place": "city",  "region_id": 5 }, "geometry": { "type": "Point", "coordinates": [ 47.495556109621731, 42.973937957470696 ] } },
{ "type": "Feature", "properties": { "name": "Канаш", "place": "town",  "region_id": 21 }, "geometry": { "type": "Point", "coordinates": [ 47.497148783065022, 55.515734749870681 ] } },
{ "type": "Feature", "properties": { "name": "Каспийск", "place": "city",  "region_id": 5 }, "geometry": { "type": "Point", "coordinates": [ 47.638226579439085, 42.882836346515845 ] } },
{ "type": "Feature", "properties": { "name": "Избербаш", "place": "town",  "region_id": 5 }, "geometry": { "type": "Point", "coordinates": [ 47.866471669155104, 42.57235128762337 ] } },
{ "type": "Feature", "properties": { "name": "Йошкар-Ола", "place": "city",  "region_id": 12 }, "geometry": { "type": "Point", "coordinates": [ 47.89469369095481, 56.631180069071156 ] } },
{ "type": "Feature", "properties": { "name": "Астрахань", "place": "city",  "region_id": 30 }, "geometry": { "type": "Point", "coordinates": [ 48.030967509010296, 46.348262523414242 ] } },
{ "type": "Feature", "properties": { "name": "Дагестанские Огни", "place": "town",  "region_id": 5 }, "geometry": { "type": "Point", "coordinates": [ 48.185842175833521, 42.113642268493763 ] } },
{ "type": "Feature", "properties": { "name": "Дербент", "place": "city",  "region_id": 5 }, "geometry": { "type": "Point", "coordinates": [ 48.29322657686199, 42.056097828019205 ] } },
{ "type": "Feature", "properties": { "name": "Котельнич", "place": "town",  "region_id": 43 }, "geometry": { "type": "Point", "coordinates": [ 48.336516672203395, 58.303834269108165 ] } },
{ "type": "Feature", "properties": { "name": "Волжск", "place": "town",  "region_id": 12 }, "geometry": { "type": "Point", "coordinates": [ 48.361153098529101, 55.86211949533201 ] } },
{ "type": "Feature", "properties": { "name": "Ульяновск", "place": "city",  "region_id": 73 }, "geometry": { "type": "Point", "coordinates": [ 48.363590776423543, 54.309209376599526 ] } },
{ "type": "Feature", "properties": { "name": "Новоульяновск", "place": "town",  "region_id": 73 }, "geometry": { "type": "Point", "coordinates": [ 48.390968974200916, 54.144858338780438 ] } },
{ "type": "Feature", "properties": { "name": "Сызрань", "place": "city",  "region_id": 63 }, "geometry": { "type": "Point", "coordinates": [ 48.454184414837997, 53.145375953678069 ] } },
{ "type": "Feature", "properties": { "name": "Октябрьск", "place": "town",  "region_id": 63 }, "geometry": { "type": "Point", "coordinates": [ 48.670581025436256, 53.162593478441934 ] } },
{ "type": "Feature", "properties": { "name": "Казань", "place": "city",  "region_id": 16 }, "geometry": { "type": "Point", "coordinates": [ 49.123496693058769, 55.780819084382664 ] } },
{ "type": "Feature", "properties": { "name": "Тольятти", "place": "city",  "region_id": 63 }, "geometry": { "type": "Point", "coordinates": [ 49.406865259600877, 53.513398120299989 ] } },
{ "type": "Feature", "properties": { "name": "Жигулёвск", "place": "town",  "region_id": 63 }, "geometry": { "type": "Point", "coordinates": [ 49.494713460662858, 53.398601736643116 ] } },
{ "type": "Feature", "properties": { "name": "Димитровград", "place": "city",  "region_id": 73 }, "geometry": { "type": "Point", "coordinates": [ 49.603175011213821, 54.217354402245292 ] } },
{ "type": "Feature", "properties": { "name": "Киров", "place": "city",  "region_id": 43 }, "geometry": { "type": "Point", "coordinates": [ 49.663109383512115, 58.602016589161472 ] } },
{ "type": "Feature", "properties": { "name": "Чапаевск", "place": "town",  "region_id": 63 }, "geometry": { "type": "Point", "coordinates": [ 49.710484128141289, 52.97973101843494 ] } },
{ "type": "Feature", "properties": { "name": "Новокуйбышевск", "place": "city",  "region_id": 63 }, "geometry": { "type": "Point", "coordinates": [ 49.947644025861372, 53.097692568672301 ] } },
{ "type": "Feature", "properties": { "name": "Кирово-Чепецк", "place": "city",  "region_id": 43 }, "geometry": { "type": "Point", "coordinates": [ 50.033580755622197, 58.540533580647157 ] } },
{ "type": "Feature", "properties": { "name": "Самара", "place": "city",  "region_id": 63 }, "geometry": { "type": "Point", "coordinates": [ 50.113262748300365, 53.197077689830948 ] } },
{ "type": "Feature", "properties": { "name": "Слободской", "place": "town",  "region_id": 43 }, "geometry": { "type": "Point", "coordinates": [ 50.176310011143848, 58.726276213706477 ] } },
{ "type": "Feature", "properties": { "name": "Кинель", "place": "town",  "region_id": 63 }, "geometry": { "type": "Point", "coordinates": [ 50.632485770497674, 53.218188856812525 ] } },
{ "type": "Feature", "properties": { "name": "Сыктывкар", "place": "city",  "region_id": 11 }, "geometry": { "type": "Point", "coordinates": [ 50.834057925545864, 61.667500711955732 ] } },
{ "type": "Feature", "properties": { "name": "Вятские Поляны", "place": "town",  "region_id": 43 }, "geometry": { "type": "Point", "coordinates": [ 51.066467142364019, 56.222518846902219 ] } },
{ "type": "Feature", "properties": { "name": "Отрадный", "place": "town",  "region_id": 63 }, "geometry": { "type": "Point", "coordinates": [ 51.34728860546516, 53.374630878343119 ] } },
{ "type": "Feature", "properties": { "name": "Похвистнево", "place": "town",  "region_id": 63 }, "geometry": { "type": "Point", "coordinates": [ 52.12255322968754, 53.64526087644542 ] } },
{ "type": "Feature", "properties": { "name": "Можга", "place": "town",  "region_id": 18 }, "geometry": { "type": "Point", "coordinates": [ 52.217234450446135, 56.442140341263652 ] } },
{ "type": "Feature", "properties": { "name": "Бузулук", "place": "town",  "region_id": 56 }, "geometry": { "type": "Point", "coordinates": [ 52.253117399577242, 52.78695781569234 ] } },
{ "type": "Feature", "properties": { "name": "Набережные Челны", "place": "city",  "region_id": 16 }, "geometry": { "type": "Point", "coordinates": [ 52.398384946292097, 55.740492144463545 ] } },
{ "type": "Feature", "properties": { "name": "Бугуруслан", "place": "town",  "region_id": 56 }, "geometry": { "type": "Point", "coordinates": [ 52.416200731320068, 53.619264412544254 ] } },
{ "type": "Feature", "properties": { "name": "Глазов", "place": "city",  "region_id": 18 }, "geometry": { "type": "Point", "coordinates": [ 52.645593326825292, 58.138535138795696 ] } },
{ "type": "Feature", "properties": { "name": "Нарьян-Мар", "place": "city",  "region_id": 83 }, "geometry": { "type": "Point", "coordinates": [ 53.005674604968583, 67.636608375383091 ] } },
{ "type": "Feature", "properties": { "name": "Сорочинск", "place": "town",  "region_id": 56 }, "geometry": { "type": "Point", "coordinates": [ 53.15337285355703, 52.425431765629469 ] } },
{ "type": "Feature", "properties": { "name": "Ижевск", "place": "city",  "region_id": 18 }, "geometry": { "type": "Point", "coordinates": [ 53.208538481761316, 56.865051381378017 ] } },
{ "type": "Feature", "properties": { "name": "Октябрьский", "place": "town",  "region_id": 2 }, "geometry": { "type": "Point", "coordinates": [ 53.465162392182826, 54.479448599157884 ] } },
{ "type": "Feature", "properties": { "name": "Ухта", "place": "town",  "region_id": 11 }, "geometry": { "type": "Point", "coordinates": [ 53.683181054563661, 63.561023893243465 ] } },
{ "type": "Feature", "properties": { "name": "Сарапул", "place": "city",  "region_id": 18 }, "geometry": { "type": "Point", "coordinates": [ 53.818405750746592, 56.475828557555509 ] } },
{ "type": "Feature", "properties": { "name": "Агидель", "place": "town",  "region_id": 2 }, "geometry": { "type": "Point", "coordinates": [ 53.936537417992817, 55.897766372938129 ] } },
{ "type": "Feature", "properties": { "name": "Воткинск", "place": "city",  "region_id": 18 }, "geometry": { "type": "Point", "coordinates": [ 53.989706603766329, 57.051006266681973 ] } },
{ "type": "Feature", "properties": { "name": "Нефтекамск", "place": "city",  "region_id": 2 }, "geometry": { "type": "Point", "coordinates": [ 54.260614772122622, 56.097723947631529 ] } },
{ "type": "Feature", "properties": { "name": "Кудымкар", "place": "town",  "region_id": 59 }, "geometry": { "type": "Point", "coordinates": [ 54.663164920975838, 59.01313023199026 ] } },
{ "type": "Feature", "properties": { "name": "Оренбург", "place": "city",  "region_id": 56 }, "geometry": { "type": "Point", "coordinates": [ 55.096271024640266, 51.76591703976721 ] } },
{ "type": "Feature", "properties": { "name": "Кумертау", "place": "town",  "region_id": 2 }, "geometry": { "type": "Point", "coordinates": [ 55.795598892873812, 52.759453868088926 ] } },
{ "type": "Feature", "properties": { "name": "Салават", "place": "city",  "region_id": 2 }, "geometry": { "type": "Point", "coordinates": [ 55.923744651585402, 53.36016987587346 ] } },
{ "type": "Feature", "properties": { "name": "Уфа", "place": "city",  "region_id": 2 }, "geometry": { "type": "Point", "coordinates": [ 55.946806782771382, 54.72477979427893 ] } },
{ "type": "Feature", "properties": { "name": "Стерлитамак", "place": "city",  "region_id": 2 }, "geometry": { "type": "Point", "coordinates": [ 55.951355352460709, 53.630857854675554 ] } },
{ "type": "Feature", "properties": { "name": "Пермь", "place": "city",  "region_id": 59 }, "geometry": { "type": "Point", "coordinates": [ 56.245724948297386, 58.013487831874919 ] } },
{ "type": "Feature", "properties": { "name": "Звёздный", "place": "town",  "region_id": 59 }, "geometry": { "type": "Point", "coordinates": [ 56.312532221964211, 57.73383213908928 ] } },
{ "type": "Feature", "properties": { "name": "Соликамск", "place": "city",  "region_id": 59 }, "geometry": { "type": "Point", "coordinates": [ 56.778376430991251, 59.647894642062909 ] } },
{ "type": "Feature", "properties": { "name": "Березники", "place": "city",  "region_id": 59 }, "geometry": { "type": "Point", "coordinates": [ 56.802643459382573, 59.406958054730225 ] } },
{ "type": "Feature", "properties": { "name": "Кунгур", "place": "town",  "region_id": 59 }, "geometry": { "type": "Point", "coordinates": [ 56.943321210874288, 57.427365481603019 ] } },
{ "type": "Feature", "properties": { "name": "Губаха", "place": "town",  "region_id": 59 }, "geometry": { "type": "Point", "coordinates": [ 57.553995830074804, 58.840946288552963 ] } },
{ "type": "Feature", "properties": { "name": "Медногорск", "place": "town",  "region_id": 56 }, "geometry": { "type": "Point", "coordinates": [ 57.579164344530909, 51.403487368397833 ] } },
{ "type": "Feature", "properties": { "name": "Лысьва", "place": "town",  "region_id": 59 }, "geometry": { "type": "Point", "coordinates": [ 57.801794941097718, 58.103590985285493 ] } },
{ "type": "Feature", "properties": { "name": "Усть-Катав", "place": "town",  "region_id": 74 }, "geometry": { "type": "Point", "coordinates": [ 58.152334885700753, 54.923023977871885 ] } },
{ "type": "Feature", "properties": { "name": "Новотроицк", "place": "town",  "region_id": 56 }, "geometry": { "type": "Point", "coordinates": [ 58.297600688857145, 51.194851777833804 ] } },
{ "type": "Feature", "properties": { "name": "Белорецк", "place": "town",  "region_id": 2 }, "geometry": { "type": "Point", "coordinates": [ 58.389477190823776, 53.957791634574008 ] } },
{ "type": "Feature", "properties": { "name": "Гай", "place": "town",  "region_id": 56 }, "geometry": { "type": "Point", "coordinates": [ 58.43958374700302, 51.46992673622789 ] } },
{ "type": "Feature", "properties": { "name": "Трёхгорный", "place": "town",  "region_id": 74 }, "geometry": { "type": "Point", "coordinates": [ 58.458284305768856, 54.816767267600376 ] } },
{ "type": "Feature", "properties": { "name": "Орск", "place": "city",  "region_id": 56 }, "geometry": { "type": "Point", "coordinates": [ 58.472869688492089, 51.228984620314989 ] } },
{ "type": "Feature", "properties": { "name": "Сибай", "place": "town",  "region_id": 2 }, "geometry": { "type": "Point", "coordinates": [ 58.662768196963732, 52.718806662220281 ] } },
{ "type": "Feature", "properties": { "name": "Магнитогорск", "place": "city",  "region_id": 74 }, "geometry": { "type": "Point", "coordinates": [ 58.982349016282427, 53.422783031876136 ] } },
{ "type": "Feature", "properties": { "name": "Верхнеуральск", "place": "town",  "region_id": 74 }, "geometry": { "type": "Point", "coordinates": [ 59.210380699891843, 53.876509155745829 ] } },
{ "type": "Feature", "properties": { "name": "Златоуст", "place": "city",  "region_id": 74 }, "geometry": { "type": "Point", "coordinates": [ 59.678223335466789, 55.165942724017924 ] } },
{ "type": "Feature", "properties": { "name": "Первоуральск", "place": "city",  "region_id": 66 }, "geometry": { "type": "Point", "coordinates": [ 59.942032172511716, 56.903397969278963 ] } },
{ "type": "Feature", "properties": { "name": "Нижний Тагил", "place": "city",  "region_id": 66 }, "geometry": { "type": "Point", "coordinates": [ 59.949733532193932, 57.903697630650498 ] } },
{ "type": "Feature", "properties": { "name": "Миасс", "place": "city",  "region_id": 74 }, "geometry": { "type": "Point", "coordinates": [ 60.107287686097777, 55.063827126388048 ] } },
{ "type": "Feature", "properties": { "name": "Краснотурьинск", "place": "town",  "region_id": 66 }, "geometry": { "type": "Point", "coordinates": [ 60.192360144795387, 59.763043495250166 ] } },
{ "type": "Feature", "properties": { "name": "Карабаш", "place": "town",  "region_id": 74 }, "geometry": { "type": "Point", "coordinates": [ 60.208481415179975, 55.48433682192227 ] } },
{ "type": "Feature", "properties": { "name": "Чебаркуль", "place": "town",  "region_id": 74 }, "geometry": { "type": "Point", "coordinates": [ 60.363382107672741, 54.976943935600524 ] } },
{ "type": "Feature", "properties": { "name": "Кыштым", "place": "town",  "region_id": 74 }, "geometry": { "type": "Point", "coordinates": [ 60.550131426519187, 55.708456022160362 ] } },
{ "type": "Feature", "properties": { "name": "Екатеринбург", "place": "federal",  "region_id": 66 }, "geometry": { "type": "Point", "coordinates": [ 60.607144766218042, 56.837646722372313 ] } },
{ "type": "Feature", "properties": { "name": "Локомотивный", "place": "town",  "region_id": 74 }, "geometry": { "type": "Point", "coordinates": [ 60.613495815516622, 53.041069672885556 ] } },
{ "type": "Feature", "properties": { "name": "Озёрск", "place": "town",  "region_id": 74 }, "geometry": { "type": "Point", "coordinates": [ 60.704017807453852, 55.758995417947567 ] } },
{ "type": "Feature", "properties": { "name": "Снежинск", "place": "town",  "region_id": 74 }, "geometry": { "type": "Point", "coordinates": [ 60.731584570445769, 56.08554647989952 ] } },
{ "type": "Feature", "properties": { "name": "Южноуральск", "place": "town",  "region_id": 74 }, "geometry": { "type": "Point", "coordinates": [ 61.266438014868946, 54.441001695163479 ] } },
{ "type": "Feature", "properties": { "name": "Челябинск", "place": "city",  "region_id": 74 }, "geometry": { "type": "Point", "coordinates": [ 61.401466658905314, 55.158374804116121 ] } },
{ "type": "Feature", "properties": { "name": "Троицк", "place": "town",  "region_id": 74 }, "geometry": { "type": "Point", "coordinates": [ 61.550923831568298, 54.083073196227602 ] } },
{ "type": "Feature", "properties": { "name": "Копейск", "place": "city",  "region_id": 74 }, "geometry": { "type": "Point", "coordinates": [ 61.620540068123162, 55.11173034996299 ] } },
{ "type": "Feature", "properties": { "name": "Каменск-Уральский", "place": "city",  "region_id": 66 }, "geometry": { "type": "Point", "coordinates": [ 61.916663468224314, 56.413999191920588 ] } },
{ "type": "Feature", "properties": { "name": "Ирбит", "place": "town",  "region_id": 66 }, "geometry": { "type": "Point", "coordinates": [ 63.064523851743822, 57.670202734383928 ] } },
{ "type": "Feature", "properties": { "name": "Югорск", "place": "town",  "region_id": 86 }, "geometry": { "type": "Point", "coordinates": [ 63.330007122595617, 61.313663583141121 ] } },
{ "type": "Feature", "properties": { "name": "Шадринск", "place": "town",  "region_id": 45 }, "geometry": { "type": "Point", "coordinates": [ 63.628309160537484, 56.085924273498975 ] } },
{ "type": "Feature", "properties": { "name": "Воркута", "place": "city",  "region_id": 11 }, "geometry": { "type": "Point", "coordinates": [ 64.038438105647501, 67.493654905242863 ] } },
{ "type": "Feature", "properties": { "name": "Урай", "place": "town",  "region_id": 86 }, "geometry": { "type": "Point", "coordinates": [ 64.80229234904958, 60.127730794963099 ] } },
{ "type": "Feature", "properties": { "name": "Курган", "place": "city",  "region_id": 45 }, "geometry": { "type": "Point", "coordinates": [ 65.32066948606375, 55.452916775263525 ] } },
{ "type": "Feature", "properties": { "name": "Нягань", "place": "town",  "region_id": 86 }, "geometry": { "type": "Point", "coordinates": [ 65.433326056210021, 62.143277376394714 ] } },
{ "type": "Feature", "properties": { "name": "Тюмень", "place": "city",  "region_id": 72 }, "geometry": { "type": "Point", "coordinates": [ 65.5410187283601, 57.152120914419399 ] } },
{ "type": "Feature", "properties": { "name": "Ялуторовск", "place": "town",  "region_id": 72 }, "geometry": { "type": "Point", "coordinates": [ 66.311486148765013, 56.653520952581758 ] } },
{ "type": "Feature", "properties": { "name": "Лабытнанги", "place": "town",  "region_id": 89 }, "geometry": { "type": "Point", "coordinates": [ 66.384483257453411, 66.65834881856216 ] } },
{ "type": "Feature", "properties": { "name": "Заводоуковск", "place": "town",  "region_id": 72 }, "geometry": { "type": "Point", "coordinates": [ 66.537992854864015, 56.50788289902934 ] } },
{ "type": "Feature", "properties": { "name": "Салехард", "place": "town",  "region_id": 89 }, "geometry": { "type": "Point", "coordinates": [ 66.614046017126057, 66.536248910204804 ] } },
{ "type": "Feature", "properties": { "name": "Тобольск", "place": "city",  "region_id": 72 }, "geometry": { "type": "Point", "coordinates": [ 68.249227028706599, 58.199907444809305 ] } },
{ "type": "Feature", "properties": { "name": "Ханты-Мансийск", "place": "city",  "region_id": 86 }, "geometry": { "type": "Point", "coordinates": [ 69.017661577062412, 61.002122344632838 ] } },
{ "type": "Feature", "properties": { "name": "Ишим", "place": "town",  "region_id": 72 }, "geometry": { "type": "Point", "coordinates": [ 69.472032638275039, 56.109524992993769 ] } },
{ "type": "Feature", "properties": { "name": "Нефтеюганск", "place": "city",  "region_id": 86 }, "geometry": { "type": "Point", "coordinates": [ 72.608497313584735, 61.089007900591405 ] } },
{ "type": "Feature", "properties": { "name": "Пыть-Ях", "place": "town",  "region_id": 86 }, "geometry": { "type": "Point", "coordinates": [ 72.838386568712281, 60.753814278930783 ] } },
{ "type": "Feature", "properties": { "name": "Омск", "place": "city",  "region_id": 55 }, "geometry": { "type": "Point", "coordinates": [ 73.370092678829678, 54.990013640499839 ] } },
{ "type": "Feature", "properties": { "name": "Сургут", "place": "city",  "region_id": 86 }, "geometry": { "type": "Point", "coordinates": [ 73.394763112764238, 61.252744049730154 ] } },
{ "type": "Feature", "properties": { "name": "Когалым", "place": "town",  "region_id": 86 }, "geometry": { "type": "Point", "coordinates": [ 74.487045827723904, 62.266696454233418 ] } },
{ "type": "Feature", "properties": { "name": "Муравленко", "place": "town",  "region_id": 89 }, "geometry": { "type": "Point", "coordinates": [ 74.495129927022759, 63.793555116462421 ] } },
{ "type": "Feature", "properties": { "name": "Лангепас", "place": "town",  "region_id": 86 }, "geometry": { "type": "Point", "coordinates": [ 75.187593040256473, 61.245988518066007 ] } },
{ "type": "Feature", "properties": { "name": "Ноябрьск", "place": "city",  "region_id": 89 }, "geometry": { "type": "Point", "coordinates": [ 75.445784617781797, 63.199051973513633 ] } },
{ "type": "Feature", "properties": { "name": "Покачи", "place": "town",  "region_id": 86 }, "geometry": { "type": "Point", "coordinates": [ 75.595516144282286, 61.742932399949161 ] } },
{ "type": "Feature", "properties": { "name": "Мегион", "place": "town",  "region_id": 86 }, "geometry": { "type": "Point", "coordinates": [ 76.106512094005637, 61.034142586505617 ] } },
{ "type": "Feature", "properties": { "name": "Губкинский", "place": "town",  "region_id": 89 }, "geometry": { "type": "Point", "coordinates": [ 76.488636171319669, 64.432919604374874 ] } },
{ "type": "Feature", "properties": { "name": "Нижневартовск", "place": "city",  "region_id": 86 }, "geometry": { "type": "Point", "coordinates": [ 76.578662431724041, 60.932787028842874 ] } },
{ "type": "Feature", "properties": { "name": "Новый Уренгой", "place": "city",  "region_id": 89 }, "geometry": { "type": "Point", "coordinates": [ 76.677894335270565, 66.08401223914629 ] } },
{ "type": "Feature", "properties": { "name": "Радужный", "place": "town",  "region_id": 86 }, "geometry": { "type": "Point", "coordinates": [ 77.46082534873797, 62.13408473981869 ] } },
{ "type": "Feature", "properties": { "name": "Стрежевой", "place": "town",  "region_id": 70 }, "geometry": { "type": "Point", "coordinates": [ 77.599080528175506, 60.731508135528976 ] } },
{ "type": "Feature", "properties": { "name": "Яровое", "place": "town",  "region_id": 22 }, "geometry": { "type": "Point", "coordinates": [ 78.562216867740688, 52.918262463862639 ] } },
{ "type": "Feature", "properties": { "name": "Славгород", "place": "town",  "region_id": 22 }, "geometry": { "type": "Point", "coordinates": [ 78.637120355710366, 52.998672811632275 ] } },
{ "type": "Feature", "properties": { "name": "Кедровый", "place": "town",  "region_id": 70 }, "geometry": { "type": "Point", "coordinates": [ 79.569170473038497, 57.560655286210576 ] } },
{ "type": "Feature", "properties": { "name": "Рубцовск", "place": "city",  "region_id": 22 }, "geometry": { "type": "Point", "coordinates": [ 81.214916879430447, 51.526377323512278 ] } },
{ "type": "Feature", "properties": { "name": "Камень-на-Оби", "place": "town",  "region_id": 22 }, "geometry": { "type": "Point", "coordinates": [ 81.346971007838519, 53.788462956805212 ] } },
{ "type": "Feature", "properties": { "name": "Змеиногорск", "place": "town",  "region_id": 22 }, "geometry": { "type": "Point", "coordinates": [ 82.184763959917262, 51.15712727053247 ] } },
{ "type": "Feature", "properties": { "name": "Обь", "place": "town",  "region_id": 54 }, "geometry": { "type": "Point", "coordinates": [ 82.691795754671759, 54.993874528243801 ] } },
{ "type": "Feature", "properties": { "name": "Алейск", "place": "town",  "region_id": 22 }, "geometry": { "type": "Point", "coordinates": [ 82.779812020122506, 52.493625792824702 ] } },
{ "type": "Feature", "properties": { "name": "Новосибирск", "place": "federal",  "region_id": 54 }, "geometry": { "type": "Point", "coordinates": [ 82.921843044308716, 55.02696565118962 ] } },
{ "type": "Feature", "properties": { "name": "Бердск", "place": "city", "region_id": 54 }, "geometry": { "type": "Point", "coordinates": [ 83.105211028779564, 54.756693107537387 ] } },
{ "type": "Feature", "properties": { "name": "Кольцово", "place": "town",  "region_id": 54 }, "geometry": { "type": "Point", "coordinates": [ 83.185532584587762, 54.935519794843927 ] } },
{ "type": "Feature", "properties": { "name": "Искитим", "place": "town",  "region_id": 54 }, "geometry": { "type": "Point", "coordinates": [ 83.301969410395614, 54.64137097323345 ] } },
{ "type": "Feature", "properties": { "name": "Барнаул", "place": "city",  "region_id": 22 }, "geometry": { "type": "Point", "coordinates": [ 83.776847026259006, 53.346110731982918 ] } },
{ "type": "Feature", "properties": { "name": "Сибирский", "place": "town",  "region_id": 22 }, "geometry": { "type": "Point", "coordinates": [ 83.8372261828479, 53.556227168483062 ] } },
{ "type": "Feature", "properties": { "name": "Новоалтайск", "place": "town",  "region_id": 22 }, "geometry": { "type": "Point", "coordinates": [ 83.937837357422481, 53.392079052798692 ] } },
{ "type": "Feature", "properties": { "name": "Северск", "place": "city",  "region_id": 70 }, "geometry": { "type": "Point", "coordinates": [ 84.879307519708632, 56.601950203349006 ] } },
{ "type": "Feature", "properties": { "name": "Заринск", "place": "town",  "region_id": 22 }, "geometry": { "type": "Point", "coordinates": [ 84.92511700642838, 53.702358500093986 ] } },
{ "type": "Feature", "properties": { "name": "Юрга", "place": "town",  "region_id": 42 }, "geometry": { "type": "Point", "coordinates": [ 84.933130318643407, 55.712375593783726 ] } },
{ "type": "Feature", "properties": { "name": "Томск", "place": "city",  "region_id": 70 }, "geometry": { "type": "Point", "coordinates": [ 84.950623710549579, 56.487499226669861 ] } },
{ "type": "Feature", "properties": { "name": "Белокуриха", "place": "town",  "region_id": 22 }, "geometry": { "type": "Point", "coordinates": [ 84.991667161181823, 51.997929202864661 ] } },
{ "type": "Feature", "properties": { "name": "Бийск", "place": "city",  "region_id": 22 }, "geometry": { "type": "Point", "coordinates": [ 85.213304564404368, 52.538232648905641 ] } },
{ "type": "Feature", "properties": { "name": "Тайга", "place": "town",  "region_id": 42 }, "geometry": { "type": "Point", "coordinates": [ 85.62963122375109, 56.063861789295217 ] } },
{ "type": "Feature", "properties": { "name": "Горно-Алтайск", "place": "town",  "region_id": 4 }, "geometry": { "type": "Point", "coordinates": [ 85.962622178770602, 51.956518134460879 ] } },
{ "type": "Feature", "properties": { "name": "Анжеро-Судженск", "place": "town",  "region_id": 42 }, "geometry": { "type": "Point", "coordinates": [ 86.017654241883889, 56.076605216669684 ] } },
{ "type": "Feature", "properties": { "name": "Кемерово", "place": "city",  "region_id": 42 }, "geometry": { "type": "Point", "coordinates": [ 86.085555265801702, 55.35391146949447 ] } },
{ "type": "Feature", "properties": { "name": "Ленинск-Кузнецкий", "place": "city",  "region_id": 42 }, "geometry": { "type": "Point", "coordinates": [ 86.164461932139233, 54.664221725550597 ] } },
{ "type": "Feature", "properties": { "name": "Берёзовский", "place": "town",  "region_id": 42 }, "geometry": { "type": "Point", "coordinates": [ 86.27283362525381, 55.668717501181526 ] } },
{ "type": "Feature", "properties": { "name": "Полысаево", "place": "town",  "region_id": 42 }, "geometry": { "type": "Point", "coordinates": [ 86.274370055985642, 54.601920510458307 ] } },
{ "type": "Feature", "properties": { "name": "Белово", "place": "town",  "region_id": 42 }, "geometry": { "type": "Point", "coordinates": [ 86.301786966635007, 54.418082575943373 ] } },
{ "type": "Feature", "properties": { "name": "Краснобродский", "place": "town",  "region_id": 42 }, "geometry": { "type": "Point", "coordinates": [ 86.446461935984942, 54.156161834248394 ] } },
{ "type": "Feature", "properties": { "name": "Киселёвск", "place": "city",  "region_id": 42 }, "geometry": { "type": "Point", "coordinates": [ 86.63384048676663, 54.003763869390056 ] } },
{ "type": "Feature", "properties": { "name": "Прокопьевск", "place": "city",  "region_id": 42 }, "geometry": { "type": "Point", "coordinates": [ 86.736025445215986, 53.889746829580069 ] } },
{ "type": "Feature", "properties": { "name": "Новокузнецк", "place": "city",  "region_id": 42 }, "geometry": { "type": "Point", "coordinates": [ 87.134461903669575, 53.756387900458535 ] } },
{ "type": "Feature", "properties": { "name": "Калтан", "place": "town",  "region_id": 42 }, "geometry": { "type": "Point", "coordinates": [ 87.284548166953911, 53.518238734931543 ] } },
{ "type": "Feature", "properties": { "name": "Осинники", "place": "town",  "region_id": 42 }, "geometry": { "type": "Point", "coordinates": [ 87.331262037808983, 53.605774480736123 ] } },
{ "type": "Feature", "properties": { "name": "Мыски", "place": "town",  "region_id": 42 }, "geometry": { "type": "Point", "coordinates": [ 87.798666750313146, 53.712647679387082 ] } },
{ "type": "Feature", "properties": { "name": "Междуреченск", "place": "city",  "region_id": 42 }, "geometry": { "type": "Point", "coordinates": [ 88.068811830746355, 53.685235498927469 ] } },
{ "type": "Feature", "properties": { "name": "Норильск", "place": "city",  "region_id": 24 }, "geometry": { "type": "Point", "coordinates": [ 88.197857524382371, 69.34882242169094 ] } },
{ "type": "Feature", "properties": { "name": "Шарыпово", "place": "town",  "region_id": 24 }, "geometry": { "type": "Point", "coordinates": [ 89.184693152185503, 55.534333376411254 ] } },
{ "type": "Feature", "properties": { "name": "Боготол", "place": "town",  "region_id": 24 }, "geometry": { "type": "Point", "coordinates": [ 89.529870448446971, 56.210306606545416 ] } },
{ "type": "Feature", "properties": { "name": "Солнечный", "place": "town",  "region_id": 24 }, "geometry": { "type": "Point", "coordinates": [ 89.823995763417273, 55.282284035758735 ] } },
{ "type": "Feature", "properties": { "name": "Абаза", "place": "town",  "region_id": 19 }, "geometry": { "type": "Point", "coordinates": [ 90.088525903109172, 52.648906962350409 ] } },
{ "type": "Feature", "properties": { "name": "Назарово", "place": "town",  "region_id": 24 }, "geometry": { "type": "Point", "coordinates": [ 90.416727918222648, 56.010443078646404 ] } },
{ "type": "Feature", "properties": { "name": "Ачинск", "place": "city",  "region_id": 24 }, "geometry": { "type": "Point", "coordinates": [ 90.493606101215832, 56.268340013861589 ] } },
{ "type": "Feature", "properties": { "name": "Черногорск", "place": "town",  "region_id": 19 }, "geometry": { "type": "Point", "coordinates": [ 91.311504541566819, 53.82706887673239 ] } },
{ "type": "Feature", "properties": { "name": "Саяногорск", "place": "town",  "region_id": 19 }, "geometry": { "type": "Point", "coordinates": [ 91.409717183810372, 53.088211765710128 ] } },
{ "type": "Feature", "properties": { "name": "Абакан", "place": "city",  "region_id": 19 }, "geometry": { "type": "Point", "coordinates": [ 91.437172624862399, 53.714121926619171 ] } },
{ "type": "Feature", "properties": { "name": "Минусинск", "place": "town",  "region_id": 24 }, "geometry": { "type": "Point", "coordinates": [ 91.695530543369088, 53.699162875575951 ] } },
{ "type": "Feature", "properties": { "name": "Енисейск", "place": "town",  "region_id": 24 }, "geometry": { "type": "Point", "coordinates": [ 92.172897198670341, 58.452130350108362 ] } },
{ "type": "Feature", "properties": { "name": "Кедровый", "place": "town",  "region_id": 24 }, "geometry": { "type": "Point", "coordinates": [ 92.321608331307061, 56.236120852839946 ] } },
{ "type": "Feature", "properties": { "name": "Дивногорск", "place": "town",  "region_id": 24 }, "geometry": { "type": "Point", "coordinates": [ 92.373611421619842, 55.958521278011744 ] } },
{ "type": "Feature", "properties": { "name": "Лесосибирск", "place": "town",  "region_id": 24 }, "geometry": { "type": "Point", "coordinates": [ 92.484055021462595, 58.222421109891123 ] } },
{ "type": "Feature", "properties": { "name": "Красноярск", "place": "city",  "region_id": 24 }, "geometry": { "type": "Point", "coordinates": [ 92.868805407711008, 56.007149347649793 ] } },
{ "type": "Feature", "properties": { "name": "Сосновоборск", "place": "town",  "region_id": 24 }, "geometry": { "type": "Point", "coordinates": [ 93.336900184191748, 56.12038530343321 ] } },
{ "type": "Feature", "properties": { "name": "Железногорск", "place": "city",  "region_id": 24 }, "geometry": { "type": "Point", "coordinates": [ 93.531149274457761, 56.248560773836495 ] } },
{ "type": "Feature", "properties": { "name": "Кызыл", "place": "city",  "region_id": 17 }, "geometry": { "type": "Point", "coordinates": [ 94.421650968325991, 51.705561132964448 ] } },
{ "type": "Feature", "properties": { "name": "Зеленогорск", "place": "town",  "region_id": 24 }, "geometry": { "type": "Point", "coordinates": [ 94.58743406240383, 56.112469831281722 ] } },
{ "type": "Feature", "properties": { "name": "Бородино", "place": "town",  "region_id": 24 }, "geometry": { "type": "Point", "coordinates": [ 94.892758579997704, 55.898120058781082 ] } },
{ "type": "Feature", "properties": { "name": "Канск", "place": "city",  "region_id": 24 }, "geometry": { "type": "Point", "coordinates": [ 95.704922410390211, 56.204922361004641 ] } },
{ "type": "Feature", "properties": { "name": "Тулун", "place": "town",  "region_id": 38 }, "geometry": { "type": "Point", "coordinates": [ 100.57736227898882, 54.561063651646684 ] } },
{ "type": "Feature", "properties": { "name": "Братск", "place": "city",  "region_id": 38 }, "geometry": { "type": "Point", "coordinates": [ 101.60934650794519, 56.162307512351262 ] } },
{ "type": "Feature", "properties": { "name": "Зима", "place": "town",  "region_id": 38 }, "geometry": { "type": "Point", "coordinates": [ 102.0508889264643, 53.927381718951665 ] } },
{ "type": "Feature", "properties": { "name": "Саянск", "place": "town",  "region_id": 38 }, "geometry": { "type": "Point", "coordinates": [ 102.16767196259255, 54.107402918616295 ] } },
{ "type": "Feature", "properties": { "name": "Усть-Илимск", "place": "town",  "region_id": 38 }, "geometry": { "type": "Point", "coordinates": [ 102.73215870467513, 57.958526100758718 ] } },
{ "type": "Feature", "properties": { "name": "Черемхово", "place": "town",  "region_id": 38 }, "geometry": { "type": "Point", "coordinates": [ 103.06832196677527, 53.147416936945632 ] } },
{ "type": "Feature", "properties": { "name": "Свирск", "place": "town",  "region_id": 38 }, "geometry": { "type": "Point", "coordinates": [ 103.34051562169508, 53.065256723373707 ] } },
{ "type": "Feature", "properties": { "name": "Усолье-Сибирское", "place": "town",  "region_id": 38 }, "geometry": { "type": "Point", "coordinates": [ 103.66027027299403, 52.750145427161371 ] } },
{ "type": "Feature", "properties": { "name": "Иркутск", "place": "city",  "region_id": 38 }, "geometry": { "type": "Point", "coordinates": [ 104.27878739469708, 52.288585183442237 ] } },
{ "type": "Feature", "properties": { "name": "Улан-Удэ", "place": "city",  "region_id": 3 }, "geometry": { "type": "Point", "coordinates": [ 107.581854004604, 51.834774578212503 ] } },
{ "type": "Feature", "properties": { "name": "Петровск-Забайкальский", "place": "town",  "region_id": 75 }, "geometry": { "type": "Point", "coordinates": [ 108.85269272405256, 51.274252042255654 ] } },
{ "type": "Feature", "properties": { "name": "Северобайкальск", "place": "town",  "region_id": 3 }, "geometry": { "type": "Point", "coordinates": [ 109.33367398459217, 55.635082575632069 ] } },
{ "type": "Feature", "properties": { "name": "Горный", "place": "town",  "region_id": 75 }, "geometry": { "type": "Point", "coordinates": [ 113.03134637054927, 51.553781304317255 ] } },
{ "type": "Feature", "properties": { "name": "Чита", "place": "city",  "region_id": 75 }, "geometry": { "type": "Point", "coordinates": [ 113.49905538738462, 52.032524309771489 ] } },
{ "type": "Feature", "properties": { "name": "Агинское", "place": "town",  "region_id": 75 }, "geometry": { "type": "Point", "coordinates": [ 114.54246112877972, 51.106301690118663 ] } },
{ "type": "Feature", "properties": { "name": "Тында", "place": "town",  "region_id": 28 }, "geometry": { "type": "Point", "coordinates": [ 124.73524231621683, 55.14932182046131 ] } },
{ "type": "Feature", "properties": { "name": "Зея", "place": "town",  "region_id": 28 }, "geometry": { "type": "Point", "coordinates": [ 127.26973028087848, 53.739709283582314 ] } },
{ "type": "Feature", "properties": { "name": "Благовещенск", "place": "city",  "region_id": 28 }, "geometry": { "type": "Point", "coordinates": [ 127.5253976122052, 50.289814089844967 ] } },
{ "type": "Feature", "properties": { "name": "Шимановск", "place": "town",  "region_id": 28 }, "geometry": { "type": "Point", "coordinates": [ 127.66974209076437, 51.999889834736408 ] } },
{ "type": "Feature", "properties": { "name": "Углегорск", "place": "town",  "region_id": 28 }, "geometry": { "type": "Point", "coordinates": [ 128.12164517183413, 51.764114770232659 ] } },
{ "type": "Feature", "properties": { "name": "Свободный", "place": "town",  "region_id": 28 }, "geometry": { "type": "Point", "coordinates": [ 128.13294910119905, 51.376668825271906 ] } },
{ "type": "Feature", "properties": { "name": "Белогорск", "place": "town",  "region_id": 28 }, "geometry": { "type": "Point", "coordinates": [ 128.47109522464109, 50.920636519993714 ] } },
{ "type": "Feature", "properties": { "name": "Райчихинск", "place": "town",  "region_id": 28 }, "geometry": { "type": "Point", "coordinates": [ 129.40163488142949, 49.796194011569696 ] } },
{ "type": "Feature", "properties": { "name": "Прогресс", "place": "city",  "region_id": 28 }, "geometry": { "type": "Point", "coordinates": [ 129.67291654455789, 49.74718904329761 ] } },
{ "type": "Feature", "properties": { "name": "Якутск", "place": "city",  "region_id": 14 }, "geometry": { "type": "Point", "coordinates": [ 129.72974171233622, 62.026850448326279 ] } },
{ "type": "Feature", "properties": { "name": "Жатай", "place": "town",  "region_id": 14 }, "geometry": { "type": "Point", "coordinates": [ 129.84075231777993, 62.163674329518464 ] } },
{ "type": "Feature", "properties": { "name": "Владивосток", "place": "city",  "region_id": 25 }, "geometry": { "type": "Point", "coordinates": [ 131.88386902643197, 43.11448582307019 ] } },
{ "type": "Feature", "properties": { "name": "Уссурийск", "place": "city",  "region_id": 25 }, "geometry": { "type": "Point", "coordinates": [ 131.95052760073338, 43.79646125932323 ] } },
{ "type": "Feature", "properties": { "name": "Артём", "place": "city",  "region_id": 25 }, "geometry": { "type": "Point", "coordinates": [ 132.18382727581414, 43.356248521477163 ] } },
{ "type": "Feature", "properties": { "name": "Большой Камень", "place": "town",  "region_id": 25 }, "geometry": { "type": "Point", "coordinates": [ 132.34938157119873, 43.111327468162173 ] } },
{ "type": "Feature", "properties": { "name": "Фокино", "place": "town",  "region_id": 25 }, "geometry": { "type": "Point", "coordinates": [ 132.4033796441137, 42.976414485104648 ] } },
{ "type": "Feature", "properties": { "name": "Спасск-Дальний", "place": "town",  "region_id": 25 }, "geometry": { "type": "Point", "coordinates": [ 132.81413938574175, 44.597256978852961 ] } },
{ "type": "Feature", "properties": { "name": "Находка", "place": "city",  "region_id": 25 }, "geometry": { "type": "Point", "coordinates": [ 132.89108136750181, 42.823858026884153 ] } },
{ "type": "Feature", "properties": { "name": "Биробиджан", "place": "city",  "region_id": 79 }, "geometry": { "type": "Point", "coordinates": [ 132.9265294834087, 48.787497355181451 ] } },
{ "type": "Feature", "properties": { "name": "Партизанск", "place": "town",  "region_id": 25 }, "geometry": { "type": "Point", "coordinates": [ 133.14217257614723, 43.140546021891645 ] } },
{ "type": "Feature", "properties": { "name": "Арсеньев", "place": "city",  "region_id": 25 }, "geometry": { "type": "Point", "coordinates": [ 133.28736377816637, 44.160041529082726 ] } },
{ "type": "Feature", "properties": { "name": "Лесозаводск", "place": "town",  "region_id": 25 }, "geometry": { "type": "Point", "coordinates": [ 133.41663589047434, 45.474043369049546 ] } },
{ "type": "Feature", "properties": { "name": "Дальнереченск", "place": "town",  "region_id": 25 }, "geometry": { "type": "Point", "coordinates": [ 133.73619107012331, 45.934804046425512 ] } },
{ "type": "Feature", "properties": { "name": "Хабаровск", "place": "federal",  "region_id": 27 }, "geometry": { "type": "Point", "coordinates": [ 135.07528739919655, 48.480755481628478 ] } },
{ "type": "Feature", "properties": { "name": "Дальнегорск", "place": "town",  "region_id": 25 }, "geometry": { "type": "Point", "coordinates": [ 135.57438392843804, 44.558734870618565 ] } },
{ "type": "Feature", "properties": { "name": "Комсомольск-на-Амуре", "place": "city",  "region_id": 27 }, "geometry": { "type": "Point", "coordinates": [ 137.01907261608719, 50.550302342751039 ] } },
{ "type": "Feature", "properties": { "name": "Невельск", "place": "town",  "region_id": 65 }, "geometry": { "type": "Point", "coordinates": [ 141.8584075945526, 46.687325727323909 ] } },
{ "type": "Feature", "properties": { "name": "Холмск", "place": "town",  "region_id": 65 }, "geometry": { "type": "Point", "coordinates": [ 142.0471695345795, 47.054001969376543 ] } },
{ "type": "Feature", "properties": { "name": "Томари", "place": "town",  "region_id": 65 }, "geometry": { "type": "Point", "coordinates": [ 142.06191542415934, 47.760639274654309 ] } },
{ "type": "Feature", "properties": { "name": "Углегорск", "place": "town",  "region_id": 65 }, "geometry": { "type": "Point", "coordinates": [ 142.0627516080165, 49.07966754689911 ] } },
{ "type": "Feature", "properties": { "name": "Александровск-Сахалинский", "place": "town",  "region_id": 65 }, "geometry": { "type": "Point", "coordinates": [ 142.15750754753765, 50.897003175259108 ] } },
{ "type": "Feature", "properties": { "name": "Анива", "place": "town",  "region_id": 65 }, "geometry": { "type": "Point", "coordinates": [ 142.52598670297203, 46.714189735442638 ] } },
{ "type": "Feature", "properties": { "name": "Тымовское", "place": "town",  "region_id": 65 }, "geometry": { "type": "Point", "coordinates": [ 142.65334863782348, 50.845064707367236 ] } },
{ "type": "Feature", "properties": { "name": "Южно-Сахалинск", "place": "city",  "region_id": 65 }, "geometry": { "type": "Point", "coordinates": [ 142.7259054401996, 46.956848258858294 ] } },
{ "type": "Feature", "properties": { "name": "Корсаков", "place": "town",  "region_id": 65 }, "geometry": { "type": "Point", "coordinates": [ 142.77949151041869, 46.632229305382459 ] } },
{ "type": "Feature", "properties": { "name": "Макаров", "place": "town",  "region_id": 65 }, "geometry": { "type": "Point", "coordinates": [ 142.77982082522638, 48.623712208841489 ] } },
{ "type": "Feature", "properties": { "name": "Долинск", "place": "town",  "region_id": 65 }, "geometry": { "type": "Point", "coordinates": [ 142.78972172384451, 47.32663404575522 ] } },
{ "type": "Feature", "properties": { "name": "Смирных", "place": "town",  "region_id": 65 }, "geometry": { "type": "Point", "coordinates": [ 142.8303934856884, 49.741838846905324 ] } },
{ "type": "Feature", "properties": { "name": "Оха", "place": "town",  "region_id": 65 }, "geometry": { "type": "Point", "coordinates": [ 142.94836464795802, 53.590274505559883 ] } },
{ "type": "Feature", "properties": { "name": "Поронайск", "place": "town",  "region_id": 65 }, "geometry": { "type": "Point", "coordinates": [ 143.09998230408925, 49.221113976124819 ] } },
{ "type": "Feature", "properties": { "name": "Ноглики", "place": "town",  "region_id": 65 }, "geometry": { "type": "Point", "coordinates": [ 143.13482944121577, 51.794898887104104 ] } },
{ "type": "Feature", "properties": { "name": "Южно-Курильск", "place": "town",  "region_id": 65 }, "geometry": { "type": "Point", "coordinates": [ 145.85995031800451, 44.02646846186407 ] } },
{ "type": "Feature", "properties": { "name": "Курильск", "place": "town",  "region_id": 65 }, "geometry": { "type": "Point", "coordinates": [ 147.87376059429357, 45.228486031717864 ] } },
{ "type": "Feature", "properties": { "name": "Сусуман", "place": "town",  "region_id": 49 }, "geometry": { "type": "Point", "coordinates": [ 148.15145350353106, 62.779602046007469 ] } },
{ "type": "Feature", "properties": { "name": "Ягодное", "place": "town",  "region_id": 49 }, "geometry": { "type": "Point", "coordinates": [ 149.62343316402365, 62.521951054891062 ] } },
{ "type": "Feature", "properties": { "name": "Магадан", "place": "city",  "region_id": 49 }, "geometry": { "type": "Point", "coordinates": [ 150.79696238711813, 59.560307364706844 ] } },
{ "type": "Feature", "properties": { "name": "Ола", "place": "town",  "region_id": 49 }, "geometry": { "type": "Point", "coordinates": [ 151.29717949327366, 59.577936120628316 ] } },
{ "type": "Feature", "properties": { "name": "Сеймчан", "place": "town",  "region_id": 49 }, "geometry": { "type": "Point", "coordinates": [ 152.39122688809309, 62.93171098277007 ] } },
{ "type": "Feature", "properties": { "name": "Омсукчан", "place": "town",  "region_id": 49 }, "geometry": { "type": "Point", "coordinates": [ 155.77997869373598, 62.512715685675758 ] } },
{ "type": "Feature", "properties": { "name": "Северо-Курильск", "place": "town",  "region_id": 65 }, "geometry": { "type": "Point", "coordinates": [ 156.11400114009467, 50.667981686380557 ] } },
{ "type": "Feature", "properties": { "name": "Вилючинск", "place": "town",  "region_id": 41 }, "geometry": { "type": "Point", "coordinates": [ 158.40372980727227, 52.931567188892792 ] } },
{ "type": "Feature", "properties": { "name": "Петропавловск-Камчатский", "place": "city",  "region_id": 41 }, "geometry": { "type": "Point", "coordinates": [ 158.64494545928375, 53.023608955257487 ] } },
{ "type": "Feature", "properties": { "name": "Певек", "place": "town",  "region_id": 87 }, "geometry": { "type": "Point", "coordinates": [ 170.27262806357794, 69.70315949612295 ] } },
{ "type": "Feature", "properties": { "name": "Анадырь", "place": "town",  "region_id": 87 }, "geometry": { "type": "Point", "coordinates": [ 177.50467369414122, 64.731973646174467 ] } },
{ "type": "Feature", "properties": { "name": "Белушья Губа", "place": "village",  "region_id": 29 }, "geometry": { "type": "Point", "coordinates": [ 52.326923959407068, 71.543425454446563 ] } },
{ "type": "Feature", "properties": { "name": "Янтарный", "place": "village",  "region_id": 39 }, "geometry": { "type": "Point", "coordinates": [ 19.939358235090349, 54.86469624638994 ] } },
{ "type": "Feature", "properties": { "name": "Палана", "place": "town",  "region_id": 41 }, "geometry": { "type": "Point", "coordinates": [ 159.9496198421765, 59.082701117282539 ] } },
{ "type": "Feature", "properties": { "name": "Костомукша", "place": "town",  "region_id": 10 }, "geometry": { "type": "Point", "coordinates": [ 30.59680017132704, 64.585804464764507 ] } },
{ "type": "Feature", "properties": { "name": "Первомайский", "place": "hamlet",  "region_id": 43 }, "geometry": { "type": "Point", "coordinates": [ 51.531010592239419, 58.321699620436043 ] } },
{ "type": "Feature", "properties": { "name": "Инта", "place": "town",  "region_id": 11 }, "geometry": { "type": "Point", "coordinates": [ 60.130161919215837, 66.038395315323342 ] } },
{ "type": "Feature", "properties": { "name": "Усинск", "place": "town",  "region_id": 11 }, "geometry": { "type": "Point", "coordinates": [ 57.555815163561768, 65.99435363147802 ] } },
{ "type": "Feature", "properties": { "name": "Льгов", "place": "town",  "region_id": 46 }, "geometry": { "type": "Point", "coordinates": [ 35.283735550149821, 51.689060433755827 ] } },
{ "type": "Feature", "properties": { "name": "Эвенск", "place": "village",  "region_id": 49 }, "geometry": { "type": "Point", "coordinates": [ 159.2340873002552, 61.919212523113146 ] } },
{ "type": "Feature", "properties": { "name": "Усть-Омчуг", "place": "town",  "region_id": 49 }, "geometry": { "type": "Point", "coordinates": [ 149.63046396274069, 61.133016479285779 ] } },
{ "type": "Feature", "properties": { "name": "Палатка", "place": "town",  "region_id": 49 }, "geometry": { "type": "Point", "coordinates": [ 150.93507388319981, 60.102066708609193 ] } },
{ "type": "Feature", "properties": { "name": "Комаровский", "place": "town",  "region_id": 56 }, "geometry": { "type": "Point", "coordinates": [ 59.86654975186071, 51.023763227228052 ] } },
{ "type": "Feature", "properties": { "name": "Сорск", "place": "town",  "region_id": 19 }, "geometry": { "type": "Point", "coordinates": [ 90.245254273451323, 53.994469520749625 ] } },
{ "type": "Feature", "properties": { "name": "Михайловский", "place": "town",  "region_id": 64 }, "geometry": { "type": "Point", "coordinates": [ 45.71674782923818, 51.491657773271008 ] } },
{ "type": "Feature", "properties": { "name": "Кирсанов", "place": "town",  "region_id": 68 }, "geometry": { "type": "Point", "coordinates": [ 42.724463523739701, 52.653175264894891 ] } },
{ "type": "Feature", "properties": { "name": "Солнечный", "place": "village",  "region_id": 69 }, "geometry": { "type": "Point", "coordinates": [ 33.064859369367163, 57.199385401491391 ] } },
{ "type": "Feature", "properties": { "name": "Новогуровский", "place": "village",  "region_id": 71 }, "geometry": { "type": "Point", "coordinates": [ 37.339760269847147, 54.466570208630735 ] } },
{ "type": "Feature", "properties": { "name": "Славный", "place": "village",  "region_id": 71 }, "geometry": { "type": "Point", "coordinates": [ 36.473201236440907, 53.545538732735025 ] } },
{ "type": "Feature", "properties": { "name": "Ак-Довурак", "place": "town",  "region_id": 17 }, "geometry": { "type": "Point", "coordinates": [ 90.598386067427356, 51.172872105905839 ] } },
{ "type": "Feature", "properties": { "name": "Алатырь", "place": "town",  "region_id": 21 }, "geometry": { "type": "Point", "coordinates": [ 46.587198331373635, 54.840350739873969 ] } },
{ "type": "Feature", "properties": { "name": "Севастополь", "place": "town",  "region_id": 92 }, "geometry": { "type": "Point", "coordinates": [ 33.566937071238264, 44.62044052282544 ] } },
{ "type": "Feature", "properties": { "name": "Симферополь", "place": "federal",  "region_id": 91 }, "geometry": { "type": "Point", "coordinates": [ 34.062845601923172, 45.062697967128891 ] } }
]
}
