{
"type": "FeatureCollection",
"crs": { "type": "name", "properties": { "name": "urn:ogc:def:crs:EPSG::4202" } },
                                                                                
"features": [
{ "type": "Feature", "properties": { "NAME": "Провидения", "PLACE": "town", "A_RGN": "Чукотский автономный округ", "A_DSTRCT": "Провиденский район", "POPULATION": "1993", "REG_ID": 87 }, "geometry": { "type": "Point", "coordinates": [ -173.22854380819314, 64.424173453605889 ] } },
{ "type": "Feature", "properties": { "NAME": "Мамоново", "PLACE": "town", "A_RGN": "Калининградская область", "A_DSTRCT": "Мамоновский городской округ", "POPULATION": "7393", "REG_ID": 39 }, "geometry": { "type": "Point", "coordinates": [ 19.941661559963347, 54.462061450541377 ] } },
{ "type": "Feature", "properties": { "NAME": "Светлый", "PLACE": "town", "A_RGN": "Калининградская область", "A_DSTRCT": null, "POPULATION": "22225", "REG_ID": 39 }, "geometry": { "type": "Point", "coordinates": [ 20.131380348366157, 54.671789139875088 ] } },
{ "type": "Feature", "properties": { "NAME": "Ладушкин", "PLACE": "town", "A_RGN": "Калининградская область", "A_DSTRCT": "Ладушкинский городской округ", "POPULATION": "3941", "REG_ID": 39 }, "geometry": { "type": "Point", "coordinates": [ 20.173665627419879, 54.569701579567813 ] } },
{ "type": "Feature", "properties": { "NAME": "Пионерский", "PLACE": "town", "A_RGN": "Калининградская область", "A_DSTRCT": null, "POPULATION": "12031", "REG_ID": 39 }, "geometry": { "type": "Point", "coordinates": [ 20.226137313464214, 54.946664062976332 ] } },
{ "type": "Feature", "properties": { "NAME": "Гурьевск", "PLACE": "town", "A_RGN": "Калининградская область", "A_DSTRCT": null, "POPULATION": "12068", "REG_ID": 39 }, "geometry": { "type": "Point", "coordinates": [ 20.611531879503456, 54.771015386313977 ] } },
{ "type": "Feature", "properties": { "NAME": "Гвардейск", "PLACE": "town", "A_RGN": "Калининградская область", "A_DSTRCT": null, "POPULATION": "12979", "REG_ID": 39 }, "geometry": { "type": "Point", "coordinates": [ 21.072139235833792, 54.646259260788675 ] } },
{ "type": "Feature", "properties": { "NAME": "Советск", "PLACE": "town", "A_RGN": "Калининградская область", "A_DSTRCT": null, "POPULATION": "44650", "REG_ID": 39 }, "geometry": { "type": "Point", "coordinates": [ 21.891422607732228, 55.076427084848916 ] } },
{ "type": "Feature", "properties": { "NAME": "Озёрск", "PLACE": "town", "A_RGN": "Калининградская область", "A_DSTRCT": null, "POPULATION": "4740", "REG_ID": 39 }, "geometry": { "type": "Point", "coordinates": [ 22.014522878202325, 54.407168108659555 ] } },
{ "type": "Feature", "properties": { "NAME": "Гусев", "PLACE": "town", "A_RGN": "Калининградская область", "A_DSTRCT": null, "POPULATION": "28000", "REG_ID": 39 }, "geometry": { "type": "Point", "coordinates": [ 22.201679685688735, 54.590573336301006 ] } },
{ "type": "Feature", "properties": { "NAME": "Псков", "PLACE": "city", "A_RGN": "Псковская область", "A_DSTRCT": null, "POPULATION": "206730", "REG_ID": 60 }, "geometry": { "type": "Point", "coordinates": [ 28.334335593584786, 57.815840381280864 ] } },
{ "type": "Feature", "properties": { "NAME": "Санкт-Петербург", "PLACE": "federal", "A_RGN": "Ленинградская область", "A_DSTRCT": null, "POPULATION": "5131942", "REG_ID": 47 }, "geometry": { "type": "Point", "coordinates": [ 30.315261928179904, 59.937822905781097 ] } },
{ "type": "Feature", "properties": { "NAME": "Ковдор", "PLACE": "town", "A_RGN": "Мурманская область", "A_DSTRCT": "Ковдорский район", "POPULATION": "19100", "REG_ID": 51 }, "geometry": { "type": "Point", "coordinates": [ 30.474007959882712, 67.561587324557621 ] } },
{ "type": "Feature", "properties": { "NAME": "Великие Луки", "PLACE": "city", "A_RGN": "Псковская область", "A_DSTRCT": null, "POPULATION": "96514", "REG_ID": 60 }, "geometry": { "type": "Point", "coordinates": [ 30.527809701205019, 56.340788388786017 ] } },
{ "type": "Feature", "properties": { "NAME": "Великий Новгород", "PLACE": "city", "A_RGN": "Новгородская область", "A_DSTRCT": null, "POPULATION": "216200", "REG_ID": 53 }, "geometry": { "type": "Point", "coordinates": [ 31.27515275501943, 58.519587499040192 ] } },
{ "type": "Feature", "properties": { "NAME": "Новозыбков", "PLACE": "town", "A_RGN": "Брянская область", "A_DSTRCT": null, "POPULATION": "40550", "REG_ID": 32 }, "geometry": { "type": "Point", "coordinates": [ 31.933508954307001, 52.535492991586089 ] } },
{ "type": "Feature", "properties": { "NAME": "Смоленск", "PLACE": "city", "A_RGN": "Смоленская область", "A_DSTRCT": "городской округ Смоленск", "POPULATION": "330961", "REG_ID": 67 }, "geometry": { "type": "Point", "coordinates": [ 32.054794494071814, 54.792514464281005 ] } },
{ "type": "Feature", "properties": { "NAME": "Клинцы", "PLACE": "town", "A_RGN": "Брянская область", "A_DSTRCT": null, "POPULATION": "72000", "REG_ID": 32 }, "geometry": { "type": "Point", "coordinates": [ 32.239925541961576, 52.756918254400276 ] } },
{ "type": "Feature", "properties": { "NAME": "Заозёрск", "PLACE": "town", "A_RGN": "Мурманская область", "A_DSTRCT": "ЗАТО Заозёрск", "POPULATION": "11206", "REG_ID": 51 }, "geometry": { "type": "Point", "coordinates": [ 32.441130555505325, 69.399486471860442 ] } },
{ "type": "Feature", "properties": { "NAME": "Полярные Зори", "PLACE": "town", "A_RGN": "Мурманская область", "A_DSTRCT": "городской округ Полярные Зори", "POPULATION": "15100", "REG_ID": 51 }, "geometry": { "type": "Point", "coordinates": [ 32.495591932839368, 67.372622639228013 ] } },
{ "type": "Feature", "properties": { "NAME": "Стародуб", "PLACE": "town", "A_RGN": "Брянская область", "A_DSTRCT": "городской округ Стародуб", "POPULATION": "18980", "REG_ID": 32 }, "geometry": { "type": "Point", "coordinates": [ 32.759911133756702, 52.582851068592532 ] } },
{ "type": "Feature", "properties": { "NAME": "Видяево", "PLACE": "town", "A_RGN": "Мурманская область", "A_DSTRCT": "ЗАТО Видяево", "POPULATION": "5826", "REG_ID": 51 }, "geometry": { "type": "Point", "coordinates": [ 32.80650773638493, 69.316563779857219 ] } },
{ "type": "Feature", "properties": { "NAME": "Мончегорск", "PLACE": "town", "A_RGN": "Мурманская область", "A_DSTRCT": "городской округ Мончегорск", "POPULATION": "45380", "REG_ID": 51 }, "geometry": { "type": "Point", "coordinates": [ 32.93145711527751, 67.938444913907333 ] } },
{ "type": "Feature", "properties": { "NAME": "Мурманск", "PLACE": "city", "A_RGN": "Мурманская область", "A_DSTRCT": "городской округ Мурманск", "POPULATION": "307664", "REG_ID": 51 }, "geometry": { "type": "Point", "coordinates": [ 33.074736868118507, 68.969220201005157 ] } },
{ "type": "Feature", "properties": { "NAME": "Снежногорск", "PLACE": "town", "A_RGN": "Мурманская область", "A_DSTRCT": "ЗАТО Александровск", "POPULATION": "14400", "REG_ID": 51 }, "geometry": { "type": "Point", "coordinates": [ 33.232112611541581, 69.19047230713791 ] } },
{ "type": "Feature", "properties": { "NAME": "Оленегорск", "PLACE": "town", "A_RGN": "Мурманская область", "A_DSTRCT": "городской округ Оленегорск", "POPULATION": "22400", "REG_ID": 51 }, "geometry": { "type": "Point", "coordinates": [ 33.28235331597012, 68.139281084179316 ] } },
{ "type": "Feature", "properties": { "NAME": "Десногорск", "PLACE": "town", "A_RGN": "Смоленская область", "A_DSTRCT": "городской округ Десногорск", "POPULATION": "28728", "REG_ID": 67 }, "geometry": { "type": "Point", "coordinates": [ 33.287897739814568, 54.150080295826754 ] } },
{ "type": "Feature", "properties": { "NAME": "Гаджиево", "PLACE": "town", "A_RGN": "Мурманская область", "A_DSTRCT": "ЗАТО Александровск", "POPULATION": "13100", "REG_ID": 51 }, "geometry": { "type": "Point", "coordinates": [ 33.3150321495051, 69.248922137705193 ] } },
{ "type": "Feature", "properties": { "NAME": "Апатиты", "PLACE": "town", "A_RGN": "Мурманская область", "A_DSTRCT": "городской округ Апатиты", "POPULATION": "61600", "REG_ID": 51 }, "geometry": { "type": "Point", "coordinates": [ 33.404147989426598, 67.567164600908413 ] } },
{ "type": "Feature", "properties": { "NAME": "Североморск", "PLACE": "town", "A_RGN": "Мурманская область", "A_DSTRCT": "ЗАТО Североморск", "POPULATION": "53500", "REG_ID": 51 }, "geometry": { "type": "Point", "coordinates": [ 33.416404677902243, 69.067722338859468 ] } },
{ "type": "Feature", "properties": { "NAME": "Полярный", "PLACE": "town", "A_RGN": "Мурманская область", "A_DSTRCT": "ЗАТО Александровск", "POPULATION": "16200", "REG_ID": 51 }, "geometry": { "type": "Point", "coordinates": [ 33.4455849142782, 69.198080571256909 ] } },
{ "type": "Feature", "properties": { "NAME": "Кировск", "PLACE": "town", "A_RGN": "Мурманская область", "A_DSTRCT": "городской округ Кировск", "POPULATION": "28700", "REG_ID": 51 }, "geometry": { "type": "Point", "coordinates": [ 33.663495182250273, 67.613672784453158 ] } },
{ "type": "Feature", "properties": { "NAME": "Озёрный", "PLACE": "town", "A_RGN": "Тверская область", "A_DSTRCT": null, "POPULATION": "1000", "REG_ID": 69 }, "geometry": { "type": "Point", "coordinates": [ 33.686433399489232, 57.866495246603122 ] } },
{ "type": "Feature", "properties": { "NAME": "Сельцо", "PLACE": "town", "A_RGN": "Брянская область", "A_DSTRCT": "городской округ Сельцо", "POPULATION": "18015", "REG_ID": 32 }, "geometry": { "type": "Point", "coordinates": [ 34.100384446608416, 53.368386631608068 ] } },
{ "type": "Feature", "properties": { "NAME": "Ржев", "PLACE": "town", "A_RGN": "Тверская область", "A_DSTRCT": null, "POPULATION": "60100", "REG_ID": 69 }, "geometry": { "type": "Point", "coordinates": [ 34.329905734600139, 56.25769225448289 ] } },
{ "type": "Feature", "properties": { "NAME": "Брянск", "PLACE": "city", "A_RGN": "Брянская область", "A_DSTRCT": "городской округ Брянск", "POPULATION": "431600", "REG_ID": 32 }, "geometry": { "type": "Point", "coordinates": [ 34.366153187992154, 53.240764651020115 ] } },
{ "type": "Feature", "properties": { "NAME": "Петрозаводск", "PLACE": "city", "A_RGN": "Карелия", "A_DSTRCT": null, "POPULATION": "272101", "REG_ID": 10 }, "geometry": { "type": "Point", "coordinates": [ 34.389746448750607, 61.788512840650668 ] } },
{ "type": "Feature", "properties": { "NAME": "Фокино", "PLACE": "town", "A_RGN": "Брянская область", "A_DSTRCT": null, "POPULATION": "14680", "REG_ID": 32 }, "geometry": { "type": "Point", "coordinates": [ 34.415218278128876, 53.451073083197279 ] } },
{ "type": "Feature", "properties": { "NAME": "Вышний Волочёк", "PLACE": "town", "A_RGN": "Тверская область", "A_DSTRCT": "городской округ Вышний Волочёк", "POPULATION": "51400", "REG_ID": 69 }, "geometry": { "type": "Point", "coordinates": [ 34.571143643930931, 57.586741656853363 ] } },
{ "type": "Feature", "properties": { "NAME": "Торжок", "PLACE": "town", "A_RGN": "Тверская область", "A_DSTRCT": null, "POPULATION": "47275", "REG_ID": 69 }, "geometry": { "type": "Point", "coordinates": [ 34.973104619759575, 57.039228599005426 ] } },
{ "type": "Feature", "properties": { "NAME": "Железногорск", "PLACE": "town", "A_RGN": "Курская область", "A_DSTRCT": "городской округ Железногорск", "POPULATION": "95000", "REG_ID": 46 }, "geometry": { "type": "Point", "coordinates": [ 35.351233363313725, 52.329024350321347 ] } },
{ "type": "Feature", "properties": { "NAME": "Курчатов", "PLACE": "town", "A_RGN": "Курская область", "A_DSTRCT": "городской округ Курчатов", "POPULATION": "42700", "REG_ID": 46 }, "geometry": { "type": "Point", "coordinates": [ 35.658588639988352, 51.657866479695535 ] } },
{ "type": "Feature", "properties": { "NAME": "Тверь", "PLACE": "city", "A_RGN": "Тверская область", "A_DSTRCT": null, "POPULATION": "410400", "REG_ID": 69 }, "geometry": { "type": "Point", "coordinates": [ 35.920528855310245, 56.85710949262414 ] } },
{ "type": "Feature", "properties": { "NAME": "Орёл", "PLACE": "city", "A_RGN": "Орловская область", "A_DSTRCT": "городской округ Орёл", "POPULATION": "317747", "REG_ID": 57 }, "geometry": { "type": "Point", "coordinates": [ 36.068955966746103, 52.966952465980107 ] } },
{ "type": "Feature", "properties": { "NAME": "Курск", "PLACE": "city", "A_RGN": "Курская область", "A_DSTRCT": "городской округ Курск", "POPULATION": "416298", "REG_ID": 46 }, "geometry": { "type": "Point", "coordinates": [ 36.179310117050491, 51.737835754267167 ] } },
{ "type": "Feature", "properties": { "NAME": "Калуга", "PLACE": "city", "A_RGN": "Калужская область", "A_DSTRCT": null, "POPULATION": "325200", "REG_ID": 40 }, "geometry": { "type": "Point", "coordinates": [ 36.259508957574553, 54.508527300468401 ] } },
{ "type": "Feature", "properties": { "NAME": "Мценск", "PLACE": "town", "A_RGN": "Орловская область", "A_DSTRCT": "городской округ Мценск", "POPULATION": "43216", "REG_ID": 57 }, "geometry": { "type": "Point", "coordinates": [ 36.575891342117735, 53.277211482704139 ] } },
{ "type": "Feature", "properties": { "NAME": "Белгород", "PLACE": "city", "A_RGN": "Белгородская область", "A_DSTRCT": null, "POPULATION": "373528", "REG_ID": 31 }, "geometry": { "type": "Point", "coordinates": [ 36.586632223199572, 50.593696449018097 ] } },
{ "type": "Feature", "properties": { "NAME": "Обнинск", "PLACE": "city", "A_RGN": "Калужская область", "A_DSTRCT": null, "POPULATION": "104800", "REG_ID": 40 }, "geometry": { "type": "Point", "coordinates": [ 36.611596815485711, 55.093596633838096 ] } },
{ "type": "Feature", "properties": { "NAME": "Щигры", "PLACE": "town", "A_RGN": "Курская область", "A_DSTRCT": "городской округ Щигры", "POPULATION": "17000", "REG_ID": 46 }, "geometry": { "type": "Point", "coordinates": [ 36.912874882568559, 51.869225211068297 ] } },
{ "type": "Feature", "properties": { "NAME": "Алексин", "PLACE": "town", "A_RGN": "Тульская область", "A_DSTRCT": null, "POPULATION": "63087", "REG_ID": 71 }, "geometry": { "type": "Point", "coordinates": [ 37.066392513170463, 54.501229853172973 ] } },
{ "type": "Feature", "properties": { "NAME": "Анапа", "PLACE": "city", "A_RGN": "Краснодарский край", "A_DSTRCT": null, "POPULATION": "66776", "REG_ID": 23 }, "geometry": { "type": "Point", "coordinates": [ 37.316577622762345, 44.892653204732817 ] } },
{ "type": "Feature", "properties": { "NAME": "Кимры", "PLACE": "town", "A_RGN": "Тверская область", "A_DSTRCT": null, "POPULATION": "49383", "REG_ID": 69 }, "geometry": { "type": "Point", "coordinates": [ 37.351750901006234, 56.88093658514947 ] } },
{ "type": "Feature", "properties": { "NAME": "Губкин", "PLACE": "town", "A_RGN": "Белгородская область", "A_DSTRCT": "Губкинский городской округ", "POPULATION": "87896", "REG_ID": 31 }, "geometry": { "type": "Point", "coordinates": [ 37.534326951873247, 51.282115459731081 ] } },
{ "type": "Feature", "properties": { "NAME": "Ливны", "PLACE": "town", "A_RGN": "Орловская область", "A_DSTRCT": "городской округ Ливны", "POPULATION": "50430", "REG_ID": 57 }, "geometry": { "type": "Point", "coordinates": [ 37.608510080542665, 52.423860518920783 ] } },
{ "type": "Feature", "properties": { "NAME": "Тула", "PLACE": "city", "A_RGN": "Тульская область", "A_DSTRCT": null, "POPULATION": "501129", "REG_ID": 71 }, "geometry": { "type": "Point", "coordinates": [ 37.615526407194032, 54.192244468396851 ] } },
{ "type": "Feature", "properties": { "NAME": "Москва", "PLACE": "federal", "A_RGN": "Московская область", "A_DSTRCT": null, "POPULATION": "12108257", "REG_ID": 50 }, "geometry": { "type": "Point", "coordinates": [ 37.618351685670106, 55.750062241711504 ] } },
{ "type": "Feature", "properties": { "NAME": "Новороссийск", "PLACE": "city", "A_RGN": "Краснодарский край", "A_DSTRCT": null, "POPULATION": "256580", "REG_ID": 23 }, "geometry": { "type": "Point", "coordinates": [ 37.768749652856847, 44.72233895291312 ] } },
{ "type": "Feature", "properties": { "NAME": "Старый Оскол", "PLACE": "city", "A_RGN": "Белгородская область", "A_DSTRCT": "Старооскольский городской округ", "POPULATION": "220630", "REG_ID": 31 }, "geometry": { "type": "Point", "coordinates": [ 37.832863386850789, 51.296440430122075 ] } },
{ "type": "Feature", "properties": { "NAME": "Череповец", "PLACE": "city", "A_RGN": "Вологодская область", "A_DSTRCT": null, "POPULATION": "315738", "REG_ID": 35 }, "geometry": { "type": "Point", "coordinates": [ 37.916006775315779, 59.127152248042144 ] } },
{ "type": "Feature", "properties": { "NAME": "Геленджик", "PLACE": "town", "A_RGN": "Краснодарский край", "A_DSTRCT": "городской округ Геленджик", "POPULATION": "65059", "REG_ID": 23 }, "geometry": { "type": "Point", "coordinates": [ 38.076430585733313, 44.559406010440036 ] } },
{ "type": "Feature", "properties": { "NAME": "Ефремов", "PLACE": "town", "A_RGN": "Тульская область", "A_DSTRCT": null, "POPULATION": "42200", "REG_ID": 71 }, "geometry": { "type": "Point", "coordinates": [ 38.116226885847155, 53.140276677712706 ] } },
{ "type": "Feature", "properties": { "NAME": "Новомосковск", "PLACE": "city", "A_RGN": "Тульская область", "A_DSTRCT": "городской округ Новомосковск", "POPULATION": "134700", "REG_ID": 71 }, "geometry": { "type": "Point", "coordinates": [ 38.2905761349245, 54.009431877692606 ] } },
{ "type": "Feature", "properties": { "NAME": "Донской", "PLACE": "town", "A_RGN": "Тульская область", "A_DSTRCT": null, "POPULATION": "64561", "REG_ID": 71 }, "geometry": { "type": "Point", "coordinates": [ 38.317969872493236, 53.964069040886322 ] } },
{ "type": "Feature", "properties": { "NAME": "Елец", "PLACE": "city", "A_RGN": "Липецкая область", "A_DSTRCT": null, "POPULATION": "111000", "REG_ID": 48 }, "geometry": { "type": "Point", "coordinates": [ 38.488087864893942, 52.612224371898598 ] } },
{ "type": "Feature", "properties": { "NAME": "Рыбинск", "PLACE": "city", "A_RGN": "Ярославская область", "A_DSTRCT": "городской округ Рыбинск", "POPULATION": "196565", "REG_ID": 76 }, "geometry": { "type": "Point", "coordinates": [ 38.834228352822237, 58.048822597713077 ] } },
{ "type": "Feature", "properties": { "NAME": "Переславль-Залесский", "PLACE": "town", "A_RGN": "Ярославская область", "A_DSTRCT": null, "POPULATION": "40930", "REG_ID": 76 }, "geometry": { "type": "Point", "coordinates": [ 38.845882490475908, 56.735048468109618 ] } },
{ "type": "Feature", "properties": { "NAME": "Таганрог", "PLACE": "city", "A_RGN": "Ростовская область", "A_DSTRCT": null, "POPULATION": "282300", "REG_ID": 61 }, "geometry": { "type": "Point", "coordinates": [ 38.903006561756918, 47.212077722283951 ] } },
{ "type": "Feature", "properties": { "NAME": "Краснодар", "PLACE": "city", "A_RGN": "Краснодарский край", "A_DSTRCT": null, "POPULATION": "805680", "REG_ID": 23 }, "geometry": { "type": "Point", "coordinates": [ 38.975357245755191, 45.033815953432025 ] } },
{ "type": "Feature", "properties": { "NAME": "Горячий Ключ", "PLACE": "town", "A_RGN": "Краснодарский край", "A_DSTRCT": null, "POPULATION": "33459", "REG_ID": 23 }, "geometry": { "type": "Point", "coordinates": [ 39.135987888624598, 44.632614963791255 ] } },
{ "type": "Feature", "properties": { "NAME": "Адыгейск", "PLACE": "town", "A_RGN": "Адыгея", "A_DSTRCT": "городской округ Адыгейск", "POPULATION": "12481", "REG_ID": 1 }, "geometry": { "type": "Point", "coordinates": [ 39.19060279733359, 44.881760559542037 ] } },
{ "type": "Feature", "properties": { "NAME": "Воронеж", "PLACE": "city", "A_RGN": "Воронежская область", "A_DSTRCT": null, "POPULATION": "1014610", "REG_ID": 36 }, "geometry": { "type": "Point", "coordinates": [ 39.212565022106745, 51.653286172383446 ] } },
{ "type": "Feature", "properties": { "NAME": "Нововоронеж", "PLACE": "town", "A_RGN": "Воронежская область", "A_DSTRCT": null, "POPULATION": "32635", "REG_ID": 36 }, "geometry": { "type": "Point", "coordinates": [ 39.215622872784934, 51.307454734534971 ] } },
{ "type": "Feature", "properties": { "NAME": "Азов", "PLACE": "town", "A_RGN": "Ростовская область", "A_DSTRCT": null, "POPULATION": "82901", "REG_ID": 61 }, "geometry": { "type": "Point", "coordinates": [ 39.417696932894316, 47.105380964427873 ] } },
{ "type": "Feature", "properties": { "NAME": "Островной", "PLACE": "town", "A_RGN": "Мурманская область", "A_DSTRCT": "ЗАТО Островной", "POPULATION": "2177", "REG_ID": 51 }, "geometry": { "type": "Point", "coordinates": [ 39.512384243107164, 68.05300000368689 ] } },
{ "type": "Feature", "properties": { "NAME": "Скопин", "PLACE": "town", "A_RGN": "Рязанская область", "A_DSTRCT": null, "POPULATION": "30400", "REG_ID": 62 }, "geometry": { "type": "Point", "coordinates": [ 39.549666527206419, 53.821535578963555 ] } },
{ "type": "Feature", "properties": { "NAME": "Липецк", "PLACE": "city", "A_RGN": "Липецкая область", "A_DSTRCT": null, "POPULATION": "506000", "REG_ID": 48 }, "geometry": { "type": "Point", "coordinates": [ 39.593289696361119, 52.60259996360216 ] } },
{ "type": "Feature", "properties": { "NAME": "Ростов-на-Дону", "PLACE": "federal", "A_RGN": "Ростовская область", "A_DSTRCT": "городской округ Ростов-на-Дону", "POPULATION": "1109800", "REG_ID": 61 }, "geometry": { "type": "Point", "coordinates": [ 39.701905072094718, 47.223249951906155 ] } },
{ "type": "Feature", "properties": { "NAME": "Сочи", "PLACE": "city", "A_RGN": "Краснодарский край", "A_DSTRCT": null, "POPULATION": "394651", "REG_ID": 23 }, "geometry": { "type": "Point", "coordinates": [ 39.722738643510311, 43.583864172654152 ] } },
{ "type": "Feature", "properties": { "NAME": "Батайск", "PLACE": "city", "A_RGN": "Ростовская область", "A_DSTRCT": null, "POPULATION": "114337", "REG_ID": 61 }, "geometry": { "type": "Point", "coordinates": [ 39.741965859698048, 47.13691686115267 ] } },
{ "type": "Feature", "properties": { "NAME": "Рязань", "PLACE": "city", "A_RGN": "Рязанская область", "A_DSTRCT": null, "POPULATION": "525100", "REG_ID": 62 }, "geometry": { "type": "Point", "coordinates": [ 39.742087635867478, 54.627993628237668 ] } },
{ "type": "Feature", "properties": { "NAME": "Северодвинск", "PLACE": "city", "A_RGN": "Архангельская область", "A_DSTRCT": null, "POPULATION": "188539", "REG_ID": 29 }, "geometry": { "type": "Point", "coordinates": [ 39.823812391305118, 64.561837687102724 ] } },
{ "type": "Feature", "properties": { "NAME": "Вологда", "PLACE": "city", "A_RGN": "Вологодская область", "A_DSTRCT": null, "POPULATION": "308172", "REG_ID": 35 }, "geometry": { "type": "Point", "coordinates": [ 39.892820733610897, 59.217337117727972 ] } },
{ "type": "Feature", "properties": { "NAME": "Ярославль", "PLACE": "city", "A_RGN": "Ярославская область", "A_DSTRCT": null, "POPULATION": "599169", "REG_ID": 76 }, "geometry": { "type": "Point", "coordinates": [ 39.892928357903081, 57.624834907003368 ] } },
{ "type": "Feature", "properties": { "NAME": "Новошахтинск", "PLACE": "city", "A_RGN": "Ростовская область", "A_DSTRCT": null, "POPULATION": "113000", "REG_ID": 61 }, "geometry": { "type": "Point", "coordinates": [ 39.935602377252131, 47.754215185455536 ] } },
{ "type": "Feature", "properties": { "NAME": "Гуково", "PLACE": "town", "A_RGN": "Ростовская область", "A_DSTRCT": null, "POPULATION": "66327", "REG_ID": 61 }, "geometry": { "type": "Point", "coordinates": [ 39.943802133834339, 48.05142268677853 ] } },
{ "type": "Feature", "properties": { "NAME": "Донецк", "PLACE": "town", "A_RGN": "Ростовская область", "A_DSTRCT": null, "POPULATION": "49772", "REG_ID": 61 }, "geometry": { "type": "Point", "coordinates": [ 39.950557149004467, 48.336679787373313 ] } },
{ "type": "Feature", "properties": { "NAME": "Новочеркасск", "PLACE": "city", "A_RGN": "Ростовская область", "A_DSTRCT": null, "POPULATION": "169039", "REG_ID": 61 }, "geometry": { "type": "Point", "coordinates": [ 40.101594129965434, 47.409049872569717 ] } },
{ "type": "Feature", "properties": { "NAME": "Майкоп", "PLACE": "city", "A_RGN": "Адыгея", "A_DSTRCT": null, "POPULATION": "144544", "REG_ID": 1 }, "geometry": { "type": "Point", "coordinates": [ 40.103669852427103, 44.604591769575563 ] } },
{ "type": "Feature", "properties": { "NAME": "Зверево", "PLACE": "town", "A_RGN": "Ростовская область", "A_DSTRCT": null, "POPULATION": "21899", "REG_ID": 61 }, "geometry": { "type": "Point", "coordinates": [ 40.118164561008498, 48.019038777563807 ] } },
{ "type": "Feature", "properties": { "NAME": "Шахты", "PLACE": "city", "A_RGN": "Ростовская область", "A_DSTRCT": "городской округ Шахты", "POPULATION": "238486", "REG_ID": 61 }, "geometry": { "type": "Point", "coordinates": [ 40.211173348348154, 47.710308415354454 ] } },
{ "type": "Feature", "properties": { "NAME": "Каменск-Шахтинский", "PLACE": "town", "A_RGN": "Ростовская область", "A_DSTRCT": null, "POPULATION": "94197", "REG_ID": 61 }, "geometry": { "type": "Point", "coordinates": [ 40.26466744854222, 48.319474579960364 ] } },
{ "type": "Feature", "properties": { "NAME": "Мирный", "PLACE": "town", "A_RGN": "Архангельская область", "A_DSTRCT": null, "POPULATION": "30631", "REG_ID": 29 }, "geometry": { "type": "Point", "coordinates": [ 40.328132451852994, 62.760846737174475 ] } },
{ "type": "Feature", "properties": { "NAME": "Радужный", "PLACE": "town", "A_RGN": "Владимирская область", "A_DSTRCT": null, "POPULATION": "17865", "REG_ID": 33 }, "geometry": { "type": "Point", "coordinates": [ 40.32899641115322, 55.992394381700763 ] } },
{ "type": "Feature", "properties": { "NAME": "Владимир", "PLACE": "city", "A_RGN": "Владимирская область", "A_DSTRCT": null, "POPULATION": "316300", "REG_ID": 33 }, "geometry": { "type": "Point", "coordinates": [ 40.407072004763087, 56.127326749932706 ] } },
{ "type": "Feature", "properties": { "NAME": "Мичуринск", "PLACE": "town", "A_RGN": "Тамбовская область", "A_DSTRCT": null, "POPULATION": "88889", "REG_ID": 68 }, "geometry": { "type": "Point", "coordinates": [ 40.478470785952183, 52.895415726672766 ] } },
{ "type": "Feature", "properties": { "NAME": "Архангельск", "PLACE": "city", "A_RGN": "Архангельская область", "A_DSTRCT": null, "POPULATION": "350985", "REG_ID": 29 }, "geometry": { "type": "Point", "coordinates": [ 40.53657816243458, 64.541538462888809 ] } },
{ "type": "Feature", "properties": { "NAME": "Тейково", "PLACE": "town", "A_RGN": "Ивановская область", "A_DSTRCT": null, "POPULATION": "35081", "REG_ID": 37 }, "geometry": { "type": "Point", "coordinates": [ 40.540127907808085, 56.853917939422793 ] } },
{ "type": "Feature", "properties": { "NAME": "Гусь-Хрустальный", "PLACE": "town", "A_RGN": "Владимирская область", "A_DSTRCT": null, "POPULATION": "61013", "REG_ID": 33 }, "geometry": { "type": "Point", "coordinates": [ 40.670413238654362, 55.613430542931759 ] } },
{ "type": "Feature", "properties": { "NAME": "Новодвинск", "PLACE": "town", "A_RGN": "Архангельская область", "A_DSTRCT": null, "POPULATION": "39937", "REG_ID": 29 }, "geometry": { "type": "Point", "coordinates": [ 40.793241844483369, 64.417726990144487 ] } },
{ "type": "Feature", "properties": { "NAME": "Кострома", "PLACE": "city", "A_RGN": "Костромская область", "A_DSTRCT": null, "POPULATION": "268540", "REG_ID": 44 }, "geometry": { "type": "Point", "coordinates": [ 40.926404358888853, 57.766374439762174 ] } },
{ "type": "Feature", "properties": { "NAME": "Иваново", "PLACE": "city", "A_RGN": "Ивановская область", "A_DSTRCT": null, "POPULATION": "432200", "REG_ID": 37 }, "geometry": { "type": "Point", "coordinates": [ 40.973265025574804, 56.996890012859986 ] } },
{ "type": "Feature", "properties": { "NAME": "Кохма", "PLACE": "town", "A_RGN": "Ивановская область", "A_DSTRCT": null, "POPULATION": "28475", "REG_ID": 37 }, "geometry": { "type": "Point", "coordinates": [ 41.093462284424128, 56.929989395993516 ] } },
{ "type": "Feature", "properties": { "NAME": "Армавир", "PLACE": "city", "A_RGN": "Краснодарский край", "A_DSTRCT": null, "POPULATION": "191799", "REG_ID": 23 }, "geometry": { "type": "Point", "coordinates": [ 41.124812674182685, 44.997083756256053 ] } },
{ "type": "Feature", "properties": { "NAME": "Волгореченск", "PLACE": "town", "A_RGN": "Костромская область", "A_DSTRCT": null, "POPULATION": "17083", "REG_ID": 44 }, "geometry": { "type": "Point", "coordinates": [ 41.154550137764552, 57.439948283456111 ] } },
{ "type": "Feature", "properties": { "NAME": "Ковров", "PLACE": "city", "A_RGN": "Владимирская область", "A_DSTRCT": null, "POPULATION": "155600", "REG_ID": 33 }, "geometry": { "type": "Point", "coordinates": [ 41.311194107009847, 56.373044490257712 ] } },
{ "type": "Feature", "properties": { "NAME": "Шуя", "PLACE": "town", "A_RGN": "Ивановская область", "A_DSTRCT": null, "POPULATION": "58052", "REG_ID": 37 }, "geometry": { "type": "Point", "coordinates": [ 41.379113100151542, 56.842544654719276 ] } },
{ "type": "Feature", "properties": { "NAME": "Касимов", "PLACE": "town", "A_RGN": "Рязанская область", "A_DSTRCT": null, "POPULATION": "33500", "REG_ID": 62 }, "geometry": { "type": "Point", "coordinates": [ 41.394707868081319, 54.938122686804761 ] } },
{ "type": "Feature", "properties": { "NAME": "Тамбов", "PLACE": "city", "A_RGN": "Тамбовская область", "A_DSTRCT": null, "POPULATION": "294300", "REG_ID": 68 }, "geometry": { "type": "Point", "coordinates": [ 41.448241857177436, 52.72801695302681 ] } },
{ "type": "Feature", "properties": { "NAME": "Котовск", "PLACE": "town", "A_RGN": "Тамбовская область", "A_DSTRCT": null, "POPULATION": "32025", "REG_ID": 68 }, "geometry": { "type": "Point", "coordinates": [ 41.499019516705594, 52.585455253869441 ] } },
{ "type": "Feature", "properties": { "NAME": "Буй", "PLACE": "town", "A_RGN": "Костромская область", "A_DSTRCT": null, "POPULATION": "25330", "REG_ID": 44 }, "geometry": { "type": "Point", "coordinates": [ 41.532550025910368, 58.480060808608364 ] } },
{ "type": "Feature", "properties": { "NAME": "Моршанск", "PLACE": "town", "A_RGN": "Тамбовская область", "A_DSTRCT": null, "POPULATION": "41060", "REG_ID": 68 }, "geometry": { "type": "Point", "coordinates": [ 41.812625728381832, 53.441322106415512 ] } },
{ "type": "Feature", "properties": { "NAME": "Рассказово", "PLACE": "town", "A_RGN": "Тамбовская область", "A_DSTRCT": null, "POPULATION": "44089", "REG_ID": 68 }, "geometry": { "type": "Point", "coordinates": [ 41.87852910237509, 52.657117591325452 ] } },
{ "type": "Feature", "properties": { "NAME": "Карачаевск", "PLACE": "town", "A_RGN": "Карачаево-Черкесская республика", "A_DSTRCT": null, "POPULATION": "20357", "REG_ID": 9 }, "geometry": { "type": "Point", "coordinates": [ 41.911551289946608, 43.769945006446662 ] } },
{ "type": "Feature", "properties": { "NAME": "Вичуга", "PLACE": "town", "A_RGN": "Ивановская область", "A_DSTRCT": null, "POPULATION": "37828", "REG_ID": 37 }, "geometry": { "type": "Point", "coordinates": [ 41.924051659137575, 57.218671084956583 ] } },
{ "type": "Feature", "properties": { "NAME": "Сасово", "PLACE": "town", "A_RGN": "Рязанская область", "A_DSTRCT": "городской округ Сасово", "POPULATION": "28100", "REG_ID": 62 }, "geometry": { "type": "Point", "coordinates": [ 41.926159035435902, 54.352347708763219 ] } },
{ "type": "Feature", "properties": { "NAME": "Невинномысск", "PLACE": "city", "A_RGN": "Ставропольский край", "A_DSTRCT": null, "POPULATION": "117638", "REG_ID": 26 }, "geometry": { "type": "Point", "coordinates": [ 41.940436800976315, 44.631742963969053 ] } },
{ "type": "Feature", "properties": { "NAME": "Ставрополь", "PLACE": "city", "A_RGN": "Ставропольский край", "A_DSTRCT": null, "POPULATION": "419816", "REG_ID": 26 }, "geometry": { "type": "Point", "coordinates": [ 41.968659487206004, 45.041712416720195 ] } },
{ "type": "Feature", "properties": { "NAME": "Урюпинск", "PLACE": "town", "A_RGN": "Волгоградская область", "A_DSTRCT": null, "POPULATION": "41594", "REG_ID": 34 }, "geometry": { "type": "Point", "coordinates": [ 42.004723706966715, 50.795505170467258 ] } },
{ "type": "Feature", "properties": { "NAME": "Муром", "PLACE": "city", "A_RGN": "Владимирская область", "A_DSTRCT": null, "POPULATION": "120000", "REG_ID": 33 }, "geometry": { "type": "Point", "coordinates": [ 42.044201784362606, 55.572236936780406 ] } },
{ "type": "Feature", "properties": { "NAME": "Черкесск", "PLACE": "city", "A_RGN": "Карачаево-Черкесская республика", "A_DSTRCT": null, "POPULATION": "124951", "REG_ID": 9 }, "geometry": { "type": "Point", "coordinates": [ 42.05633189590413, 44.223411372925661 ] } },
{ "type": "Feature", "properties": { "NAME": "Борисоглебск", "PLACE": "town", "A_RGN": "Воронежская область", "A_DSTRCT": null, "POPULATION": "65585", "REG_ID": 36 }, "geometry": { "type": "Point", "coordinates": [ 42.074699348009297, 51.366427609815936 ] } },
{ "type": "Feature", "properties": { "NAME": "Волгодонск", "PLACE": "city", "A_RGN": "Ростовская область", "A_DSTRCT": null, "POPULATION": "169085", "REG_ID": 61 }, "geometry": { "type": "Point", "coordinates": [ 42.138378862750251, 47.52748000994967 ] } },
{ "type": "Feature", "properties": { "NAME": "Кинешма", "PLACE": "town", "A_RGN": "Ивановская область", "A_DSTRCT": null, "POPULATION": "91739", "REG_ID": 37 }, "geometry": { "type": "Point", "coordinates": [ 42.139581394670842, 57.441551482320229 ] } },
{ "type": "Feature", "properties": { "NAME": "Выкса", "PLACE": "town", "A_RGN": "Нижегородская область", "A_DSTRCT": "городской округ Выкса", "POPULATION": "60000", "REG_ID": 52 }, "geometry": { "type": "Point", "coordinates": [ 42.169679815073152, 55.318961071954384 ] } },
{ "type": "Feature", "properties": { "NAME": "Навашино", "PLACE": "town", "A_RGN": "Нижегородская область", "A_DSTRCT": "Навашинский район", "POPULATION": "16600", "REG_ID": 52 }, "geometry": { "type": "Point", "coordinates": [ 42.18816961074711, 55.542507117278397 ] } },
{ "type": "Feature", "properties": { "NAME": "Уварово", "PLACE": "town", "A_RGN": "Тамбовская область", "A_DSTRCT": null, "POPULATION": "26590", "REG_ID": 68 }, "geometry": { "type": "Point", "coordinates": [ 42.257919938095924, 51.988258678518662 ] } },
{ "type": "Feature", "properties": { "NAME": "Галич", "PLACE": "town", "A_RGN": "Костромская область", "A_DSTRCT": null, "POPULATION": "17438", "REG_ID": 44 }, "geometry": { "type": "Point", "coordinates": [ 42.346842097893074, 58.379700983672109 ] } },
{ "type": "Feature", "properties": { "NAME": "Кулебаки", "PLACE": "town", "A_RGN": "Нижегородская область", "A_DSTRCT": "Кулебакский район", "POPULATION": "35700", "REG_ID": 52 }, "geometry": { "type": "Point", "coordinates": [ 42.511366823311306, 55.42772579782585 ] } },
{ "type": "Feature", "properties": { "NAME": "Кисловодск", "PLACE": "city", "A_RGN": "Ставропольский край", "A_DSTRCT": null, "POPULATION": "129949", "REG_ID": 26 }, "geometry": { "type": "Point", "coordinates": [ 42.723254074997357, 43.91274569332527 ] } },
{ "type": "Feature", "properties": { "NAME": "Ессентуки", "PLACE": "city", "A_RGN": "Ставропольский край", "A_DSTRCT": null, "POPULATION": "103093", "REG_ID": 26 }, "geometry": { "type": "Point", "coordinates": [ 42.856048618690636, 44.045226776786208 ] } },
{ "type": "Feature", "properties": { "NAME": "Лермонтов", "PLACE": "town", "A_RGN": "Ставропольский край", "A_DSTRCT": null, "POPULATION": "22771", "REG_ID": 26 }, "geometry": { "type": "Point", "coordinates": [ 42.972735764946997, 44.103228216338806 ] } },
{ "type": "Feature", "properties": { "NAME": "Железноводск", "PLACE": "town", "A_RGN": "Ставропольский край", "A_DSTRCT": null, "POPULATION": "24438", "REG_ID": 26 }, "geometry": { "type": "Point", "coordinates": [ 43.00861758283402, 44.140791755096508 ] } },
{ "type": "Feature", "properties": { "NAME": "Пятигорск", "PLACE": "federal", "A_RGN": "Ставропольский край", "A_DSTRCT": null, "POPULATION": "145952", "REG_ID": 26 }, "geometry": { "type": "Point", "coordinates": [ 43.066204006379017, 44.03947180863014 ] } },
{ "type": "Feature", "properties": { "NAME": "Минеральные Воды", "PLACE": "town", "A_RGN": "Ставропольский край", "A_DSTRCT": null, "POPULATION": "76205", "REG_ID": 26 }, "geometry": { "type": "Point", "coordinates": [ 43.134507939585497, 44.209126440662324 ] } },
{ "type": "Feature", "properties": { "NAME": "Сокольское", "PLACE": "town", "A_RGN": "Нижегородская область", "A_DSTRCT": null, "POPULATION": "6410", "REG_ID": 52 }, "geometry": { "type": "Point", "coordinates": [ 43.16307448631359, 57.140920023094843 ] } },
{ "type": "Feature", "properties": { "NAME": "Михайловка", "PLACE": "town", "A_RGN": "Волгоградская область", "A_DSTRCT": "городской округ Михайловка", "POPULATION": "58682", "REG_ID": 34 }, "geometry": { "type": "Point", "coordinates": [ 43.233893402643055, 50.078040556321447 ] } },
{ "type": "Feature", "properties": { "NAME": "Чкаловск", "PLACE": "town", "A_RGN": "Нижегородская область", "A_DSTRCT": "Чкаловский район", "POPULATION": "12363", "REG_ID": 52 }, "geometry": { "type": "Point", "coordinates": [ 43.242774226503961, 56.763365281517054 ] } },
{ "type": "Feature", "properties": { "NAME": "Саров", "PLACE": "town", "A_RGN": "Нижегородская область", "A_DSTRCT": null, "POPULATION": "90000", "REG_ID": 52 }, "geometry": { "type": "Point", "coordinates": [ 43.334073072997278, 54.933066312206719 ] } },
{ "type": "Feature", "properties": { "NAME": "Дзержинск", "PLACE": "city", "A_RGN": "Нижегородская область", "A_DSTRCT": null, "POPULATION": "261400", "REG_ID": 52 }, "geometry": { "type": "Point", "coordinates": [ 43.461189302709151, 56.236661700590169 ] } },
{ "type": "Feature", "properties": { "NAME": "Георгиевск", "PLACE": "town", "A_RGN": "Ставропольский край", "A_DSTRCT": null, "POPULATION": "71017", "REG_ID": 26 }, "geometry": { "type": "Point", "coordinates": [ 43.473162236482985, 44.147180174096718 ] } },
{ "type": "Feature", "properties": { "NAME": "Баксан", "PLACE": "town", "A_RGN": "Кабардино-Балкарская республика", "A_DSTRCT": "городской округ Баксан", "POPULATION": "37373", "REG_ID": 7 }, "geometry": { "type": "Point", "coordinates": [ 43.537181383368981, 43.675144053212186 ] } },
{ "type": "Feature", "properties": { "NAME": "Нальчик", "PLACE": "city", "A_RGN": "Кабардино-Балкарская республика", "A_DSTRCT": null, "POPULATION": "238802", "REG_ID": 7 }, "geometry": { "type": "Point", "coordinates": [ 43.618886455402503, 43.49146326471795 ] } },
{ "type": "Feature", "properties": { "NAME": "Фролово", "PLACE": "town", "A_RGN": "Волгоградская область", "A_DSTRCT": "городской округ Фролово", "POPULATION": "39489", "REG_ID": 34 }, "geometry": { "type": "Point", "coordinates": [ 43.653447272503463, 49.762978444114133 ] } },
{ "type": "Feature", "properties": { "NAME": "Первомайск", "PLACE": "town", "A_RGN": "Нижегородская область", "A_DSTRCT": "городской округ Первомайск", "POPULATION": "14650", "REG_ID": 52 }, "geometry": { "type": "Point", "coordinates": [ 43.804513308927575, 54.864191079514313 ] } },
{ "type": "Feature", "properties": { "NAME": "Арзамас", "PLACE": "city", "A_RGN": "Нижегородская область", "A_DSTRCT": null, "POPULATION": "110000", "REG_ID": 52 }, "geometry": { "type": "Point", "coordinates": [ 43.83794480425982, 55.396940966917477 ] } },
{ "type": "Feature", "properties": { "NAME": "Нижний Новгород", "PLACE": "federal", "A_RGN": "Нижегородская область", "A_DSTRCT": "городской округ Нижний Новгород", "POPULATION": "1272719", "REG_ID": 52 }, "geometry": { "type": "Point", "coordinates": [ 44.006719452701809, 56.326330538654062 ] } },
{ "type": "Feature", "properties": { "NAME": "Прохладный", "PLACE": "town", "A_RGN": "Кабардино-Балкарская республика", "A_DSTRCT": "городской округ Прохладный", "POPULATION": "57934", "REG_ID": 7 }, "geometry": { "type": "Point", "coordinates": [ 44.014328304621337, 43.757079553620393 ] } },
{ "type": "Feature", "properties": { "NAME": "Бор", "PLACE": "town", "A_RGN": "Нижегородская область", "A_DSTRCT": "городской округ Бор", "POPULATION": "75809", "REG_ID": 52 }, "geometry": { "type": "Point", "coordinates": [ 44.079095961473683, 56.353177683811879 ] } },
{ "type": "Feature", "properties": { "NAME": "Элиста", "PLACE": "city", "A_RGN": "Калмыкия", "A_DSTRCT": null, "POPULATION": "104017", "REG_ID": 8 }, "geometry": { "type": "Point", "coordinates": [ 44.269686805229135, 46.305394344335284 ] } },
{ "type": "Feature", "properties": { "NAME": "Семёнов", "PLACE": "town", "A_RGN": "Нижегородская область", "A_DSTRCT": "Семёновский городской округ", "POPULATION": "24309", "REG_ID": 52 }, "geometry": { "type": "Point", "coordinates": [ 44.490958405042093, 56.786795962534171 ] } },
{ "type": "Feature", "properties": { "NAME": "Волгоград", "PLACE": "city", "A_RGN": "Волгоградская область", "A_DSTRCT": null, "POPULATION": "1017985", "REG_ID": 34 }, "geometry": { "type": "Point", "coordinates": [ 44.51628033052917, 48.709081734923814 ] } },
{ "type": "Feature", "properties": { "NAME": "Малгобек", "PLACE": "town", "A_RGN": "Ингушетия", "A_DSTRCT": null, "POPULATION": "34385", "REG_ID": 6 }, "geometry": { "type": "Point", "coordinates": [ 44.587226192294203, 43.508442020132527 ] } },
{ "type": "Feature", "properties": { "NAME": "Владикавказ", "PLACE": "city", "A_RGN": "Северная Осетия - Алания", "A_DSTRCT": null, "POPULATION": "307310", "REG_ID": 15 }, "geometry": { "type": "Point", "coordinates": [ 44.681614881100231, 43.022985668851639 ] } },
{ "type": "Feature", "properties": { "NAME": "Мантурово", "PLACE": "town", "A_RGN": "Костромская область", "A_DSTRCT": null, "POPULATION": "17816", "REG_ID": 44 }, "geometry": { "type": "Point", "coordinates": [ 44.763268846665703, 58.331959246090619 ] } },
{ "type": "Feature", "properties": { "NAME": "Назрань", "PLACE": "city", "A_RGN": "Ингушетия", "A_DSTRCT": null, "POPULATION": "105823", "REG_ID": 6 }, "geometry": { "type": "Point", "coordinates": [ 44.765409498910309, 43.216169327541685 ] } },
{ "type": "Feature", "properties": { "NAME": "Волжский", "PLACE": "city", "A_RGN": "Волгоградская область", "A_DSTRCT": null, "POPULATION": "314400", "REG_ID": 34 }, "geometry": { "type": "Point", "coordinates": [ 44.777454670090442, 48.780508278997253 ] } },
{ "type": "Feature", "properties": { "NAME": "Магас", "PLACE": "town", "A_RGN": "Ингушетия", "A_DSTRCT": "городской округ Магас", "POPULATION": "4756", "REG_ID": 6 }, "geometry": { "type": "Point", "coordinates": [ 44.808698424041324, 43.167680165883013 ] } },
{ "type": "Feature", "properties": { "NAME": "Карабулак", "PLACE": "town", "A_RGN": "Ингушетия", "A_DSTRCT": null, "POPULATION": "37883", "REG_ID": 6 }, "geometry": { "type": "Point", "coordinates": [ 44.909831425161578, 43.3078823097187 ] } },
{ "type": "Feature", "properties": { "NAME": "Пенза", "PLACE": "city", "A_RGN": "Пензенская область", "A_DSTRCT": null, "POPULATION": "519992", "REG_ID": 58 }, "geometry": { "type": "Point", "coordinates": [ 44.999429110968485, 53.198429916835018 ] } },
{ "type": "Feature", "properties": { "NAME": "Заречный", "PLACE": "town", "A_RGN": "Пензенская область", "A_DSTRCT": null, "POPULATION": "63500", "REG_ID": 58 }, "geometry": { "type": "Point", "coordinates": [ 45.168699066798673, 53.194444157724888 ] } },
{ "type": "Feature", "properties": { "NAME": "Саранск", "PLACE": "city", "A_RGN": "Мордовия", "A_DSTRCT": null, "POPULATION": "299195", "REG_ID": 13 }, "geometry": { "type": "Point", "coordinates": [ 45.183244641083753, 54.185145758638456 ] } },
{ "type": "Feature", "properties": { "NAME": "Камышин", "PLACE": "city", "A_RGN": "Волгоградская область", "A_DSTRCT": null, "POPULATION": "119900", "REG_ID": 34 }, "geometry": { "type": "Point", "coordinates": [ 45.404243677952046, 50.079256175379172 ] } },
{ "type": "Feature", "properties": { "NAME": "Шарья", "PLACE": "town", "A_RGN": "Костромская область", "A_DSTRCT": null, "POPULATION": "36659", "REG_ID": 44 }, "geometry": { "type": "Point", "coordinates": [ 45.518947600882164, 58.368161979090438 ] } },
{ "type": "Feature", "properties": { "NAME": "Светлый", "PLACE": "town", "A_RGN": "Саратовская область", "A_DSTRCT": null, "POPULATION": "13180", "REG_ID": 64 }, "geometry": { "type": "Point", "coordinates": [ 45.622199348991217, 51.672131555877321 ] } },
{ "type": "Feature", "properties": { "NAME": "Южно-Сухокумск", "PLACE": "town", "A_RGN": "Дагестан", "A_DSTRCT": null, "POPULATION": "10186", "REG_ID": 5 }, "geometry": { "type": "Point", "coordinates": [ 45.644609092659266, 44.660628571788884 ] } },
{ "type": "Feature", "properties": { "NAME": "Грозный", "PLACE": "city", "A_RGN": "Чеченская республика", "A_DSTRCT": null, "POPULATION": "280263", "REG_ID": 20 }, "geometry": { "type": "Point", "coordinates": [ 45.698445768615223, 43.315238729333927 ] } },
{ "type": "Feature", "properties": { "NAME": "Знаменск", "PLACE": "town", "A_RGN": "Астраханская область", "A_DSTRCT": null, "POPULATION": "32414", "REG_ID": 30 }, "geometry": { "type": "Point", "coordinates": [ 45.725077663169095, 48.587239145100931 ] } },
{ "type": "Feature", "properties": { "NAME": "Аргун", "PLACE": "town", "A_RGN": "Чеченская республика", "A_DSTRCT": null, "POPULATION": "33207", "REG_ID": 20 }, "geometry": { "type": "Point", "coordinates": [ 45.868365096277067, 43.293439346437808 ] } },
{ "type": "Feature", "properties": { "NAME": "Саратов", "PLACE": "city", "A_RGN": "Саратовская область", "A_DSTRCT": null, "POPULATION": "873500", "REG_ID": 64 }, "geometry": { "type": "Point", "coordinates": [ 46.034097790766054, 51.528441557772759 ] } },
{ "type": "Feature", "properties": { "NAME": "Шумерля", "PLACE": "town", "A_RGN": "Чувашия", "A_DSTRCT": null, "POPULATION": "30536", "REG_ID": 21 }, "geometry": { "type": "Point", "coordinates": [ 46.418032884514822, 55.49696698915325 ] } },
{ "type": "Feature", "properties": { "NAME": "Козьмодемьянск", "PLACE": "town", "A_RGN": "Марий Эл", "A_DSTRCT": null, "POPULATION": "20810", "REG_ID": 12 }, "geometry": { "type": "Point", "coordinates": [ 46.545631400840463, 56.330892276915648 ] } },
{ "type": "Feature", "properties": { "NAME": "Хасавюрт", "PLACE": "city", "A_RGN": "Дагестан", "A_DSTRCT": "городской округ Хасавюрт", "POPULATION": "135329", "REG_ID": 5 }, "geometry": { "type": "Point", "coordinates": [ 46.580302584676652, 43.241141817345991 ] } },
{ "type": "Feature", "properties": { "NAME": "Кузнецк", "PLACE": "town", "A_RGN": "Пензенская область", "A_DSTRCT": null, "POPULATION": "88806", "REG_ID": 58 }, "geometry": { "type": "Point", "coordinates": [ 46.600106898496932, 53.110949001146544 ] } },
{ "type": "Feature", "properties": { "NAME": "Шахунья", "PLACE": "town", "A_RGN": "Нижегородская область", "A_DSTRCT": null, "POPULATION": "21300", "REG_ID": 52 }, "geometry": { "type": "Point", "coordinates": [ 46.615374871671811, 57.67157621760196 ] } },
{ "type": "Feature", "properties": { "NAME": "Котлас", "PLACE": "town", "A_RGN": "Архангельская область", "A_DSTRCT": null, "POPULATION": "60348", "REG_ID": 29 }, "geometry": { "type": "Point", "coordinates": [ 46.646895370818648, 61.250654776405085 ] } },
{ "type": "Feature", "properties": { "NAME": "Кизляр", "PLACE": "town", "A_RGN": "Дагестан", "A_DSTRCT": null, "POPULATION": "48078", "REG_ID": 5 }, "geometry": { "type": "Point", "coordinates": [ 46.711933823376917, 43.842169530115704 ] } },
{ "type": "Feature", "properties": { "NAME": "Кизилюрт", "PLACE": "town", "A_RGN": "Дагестан", "A_DSTRCT": null, "POPULATION": "34162", "REG_ID": 5 }, "geometry": { "type": "Point", "coordinates": [ 46.870782943885118, 43.198301376255998 ] } },
{ "type": "Feature", "properties": { "NAME": "Буйнакск", "PLACE": "town", "A_RGN": "Дагестан", "A_DSTRCT": null, "POPULATION": "62921", "REG_ID": 5 }, "geometry": { "type": "Point", "coordinates": [ 47.128058554403651, 42.821560053083054 ] } },
{ "type": "Feature", "properties": { "NAME": "Коряжма", "PLACE": "town", "A_RGN": "Архангельская область", "A_DSTRCT": null, "POPULATION": "38570", "REG_ID": 29 }, "geometry": { "type": "Point", "coordinates": [ 47.160008021415159, 61.313671177631385 ] } },
{ "type": "Feature", "properties": { "NAME": "Шиханы", "PLACE": "town", "A_RGN": "Саратовская область", "A_DSTRCT": null, "POPULATION": "6045", "REG_ID": 64 }, "geometry": { "type": "Point", "coordinates": [ 47.197847724963331, 52.113270021240453 ] } },
{ "type": "Feature", "properties": { "NAME": "Чебоксары", "PLACE": "city", "A_RGN": "Чувашия", "A_DSTRCT": null, "POPULATION": "468725", "REG_ID": 21 }, "geometry": { "type": "Point", "coordinates": [ 47.244807201063473, 56.129632725706827 ] } },
{ "type": "Feature", "properties": { "NAME": "Новочебоксарск", "PLACE": "city", "A_RGN": "Чувашия", "A_DSTRCT": null, "POPULATION": "123992", "REG_ID": 21 }, "geometry": { "type": "Point", "coordinates": [ 47.48635218845898, 56.112462095533871 ] } },
{ "type": "Feature", "properties": { "NAME": "Махачкала", "PLACE": "city", "A_RGN": "Дагестан", "A_DSTRCT": null, "POPULATION": "578332", "REG_ID": 5 }, "geometry": { "type": "Point", "coordinates": [ 47.495556109621731, 42.973937957470696 ] } },
{ "type": "Feature", "properties": { "NAME": "Канаш", "PLACE": "town", "A_RGN": "Чувашия", "A_DSTRCT": null, "POPULATION": "45819", "REG_ID": 21 }, "geometry": { "type": "Point", "coordinates": [ 47.497148783065022, 55.515734749870681 ] } },
{ "type": "Feature", "properties": { "NAME": "Каспийск", "PLACE": "city", "A_RGN": "Дагестан", "A_DSTRCT": null, "POPULATION": "105106", "REG_ID": 5 }, "geometry": { "type": "Point", "coordinates": [ 47.638226579439085, 42.882836346515845 ] } },
{ "type": "Feature", "properties": { "NAME": "Избербаш", "PLACE": "town", "A_RGN": "Дагестан", "A_DSTRCT": null, "POPULATION": "56322", "REG_ID": 5 }, "geometry": { "type": "Point", "coordinates": [ 47.866471669155104, 42.57235128762337 ] } },
{ "type": "Feature", "properties": { "NAME": "Йошкар-Ола", "PLACE": "city", "A_RGN": "Марий Эл", "A_DSTRCT": null, "POPULATION": "260352", "REG_ID": 12 }, "geometry": { "type": "Point", "coordinates": [ 47.89469369095481, 56.631180069071156 ] } },
{ "type": "Feature", "properties": { "NAME": "Астрахань", "PLACE": "city", "A_RGN": "Астраханская область", "A_DSTRCT": null, "POPULATION": "506400", "REG_ID": 30 }, "geometry": { "type": "Point", "coordinates": [ 48.030967509010296, 46.348262523414242 ] } },
{ "type": "Feature", "properties": { "NAME": "Дагестанские Огни", "PLACE": "town", "A_RGN": "Дагестан", "A_DSTRCT": null, "POPULATION": "28132", "REG_ID": 5 }, "geometry": { "type": "Point", "coordinates": [ 48.185842175833521, 42.113642268493763 ] } },
{ "type": "Feature", "properties": { "NAME": "Дербент", "PLACE": "city", "A_RGN": "Дагестан", "A_DSTRCT": null, "POPULATION": "120470", "REG_ID": 5 }, "geometry": { "type": "Point", "coordinates": [ 48.29322657686199, 42.056097828019205 ] } },
{ "type": "Feature", "properties": { "NAME": "Котельнич", "PLACE": "town", "A_RGN": "Кировская область", "A_DSTRCT": "городской округ Котельнич", "POPULATION": "24979", "REG_ID": 43 }, "geometry": { "type": "Point", "coordinates": [ 48.336516672203395, 58.303834269108165 ] } },
{ "type": "Feature", "properties": { "NAME": "Волжск", "PLACE": "town", "A_RGN": "Марий Эл", "A_DSTRCT": null, "POPULATION": "54872", "REG_ID": 12 }, "geometry": { "type": "Point", "coordinates": [ 48.361153098529101, 55.86211949533201 ] } },
{ "type": "Feature", "properties": { "NAME": "Ульяновск", "PLACE": "city", "A_RGN": "Ульяновская область", "A_DSTRCT": null, "POPULATION": "614786", "REG_ID": 73 }, "geometry": { "type": "Point", "coordinates": [ 48.363590776423543, 54.309209376599526 ] } },
{ "type": "Feature", "properties": { "NAME": "Новоульяновск", "PLACE": "town", "A_RGN": "Ульяновская область", "A_DSTRCT": null, "POPULATION": "16033", "REG_ID": 73 }, "geometry": { "type": "Point", "coordinates": [ 48.390968974200916, 54.144858338780438 ] } },
{ "type": "Feature", "properties": { "NAME": "Сызрань", "PLACE": "city", "A_RGN": "Самарская область", "A_DSTRCT": "городской округ Сызрань", "POPULATION": "178711", "REG_ID": 63 }, "geometry": { "type": "Point", "coordinates": [ 48.454184414837997, 53.145375953678069 ] } },
{ "type": "Feature", "properties": { "NAME": "Октябрьск", "PLACE": "town", "A_RGN": "Самарская область", "A_DSTRCT": null, "POPULATION": "27152", "REG_ID": 63 }, "geometry": { "type": "Point", "coordinates": [ 48.670581025436256, 53.162593478441934 ] } },
{ "type": "Feature", "properties": { "NAME": "Казань", "PLACE": "city", "A_RGN": "Татарстан", "A_DSTRCT": null, "POPULATION": "1190850", "REG_ID": 16 }, "geometry": { "type": "Point", "coordinates": [ 49.123496693058769, 55.780819084382664 ] } },
{ "type": "Feature", "properties": { "NAME": "Тольятти", "PLACE": "city", "A_RGN": "Самарская область", "A_DSTRCT": null, "POPULATION": "718127", "REG_ID": 63 }, "geometry": { "type": "Point", "coordinates": [ 49.406865259600877, 53.513398120299989 ] } },
{ "type": "Feature", "properties": { "NAME": "Жигулёвск", "PLACE": "town", "A_RGN": "Самарская область", "A_DSTRCT": null, "POPULATION": "60325", "REG_ID": 63 }, "geometry": { "type": "Point", "coordinates": [ 49.494713460662858, 53.398601736643116 ] } },
{ "type": "Feature", "properties": { "NAME": "Димитровград", "PLACE": "city", "A_RGN": "Ульяновская область", "A_DSTRCT": null, "POPULATION": "122580", "REG_ID": 73 }, "geometry": { "type": "Point", "coordinates": [ 49.603175011213821, 54.217354402245292 ] } },
{ "type": "Feature", "properties": { "NAME": "Киров", "PLACE": "city", "A_RGN": "Кировская область", "A_DSTRCT": null, "POPULATION": "473668", "REG_ID": 43 }, "geometry": { "type": "Point", "coordinates": [ 49.663109383512115, 58.602016589161472 ] } },
{ "type": "Feature", "properties": { "NAME": "Чапаевск", "PLACE": "town", "A_RGN": "Самарская область", "A_DSTRCT": null, "POPULATION": "72812", "REG_ID": 63 }, "geometry": { "type": "Point", "coordinates": [ 49.710484128141289, 52.97973101843494 ] } },
{ "type": "Feature", "properties": { "NAME": "Новокуйбышевск", "PLACE": "city", "A_RGN": "Самарская область", "A_DSTRCT": null, "POPULATION": "109868", "REG_ID": 63 }, "geometry": { "type": "Point", "coordinates": [ 49.947644025861372, 53.097692568672301 ] } },
{ "type": "Feature", "properties": { "NAME": "Кирово-Чепецк", "PLACE": "city", "A_RGN": "Кировская область", "A_DSTRCT": null, "POPULATION": "80921", "REG_ID": 43 }, "geometry": { "type": "Point", "coordinates": [ 50.033580755622197, 58.540533580647157 ] } },
{ "type": "Feature", "properties": { "NAME": "Самара", "PLACE": "city", "A_RGN": "Самарская область", "A_DSTRCT": null, "POPULATION": "1172348", "REG_ID": 63 }, "geometry": { "type": "Point", "coordinates": [ 50.113262748300365, 53.197077689830948 ] } },
{ "type": "Feature", "properties": { "NAME": "Слободской", "PLACE": "town", "A_RGN": "Кировская область", "A_DSTRCT": "городской округ Слободской", "POPULATION": "33983", "REG_ID": 43 }, "geometry": { "type": "Point", "coordinates": [ 50.176310011143848, 58.726276213706477 ] } },
{ "type": "Feature", "properties": { "NAME": "Кинель", "PLACE": "town", "A_RGN": "Самарская область", "A_DSTRCT": null, "POPULATION": "55156", "REG_ID": 63 }, "geometry": { "type": "Point", "coordinates": [ 50.632485770497674, 53.218188856812525 ] } },
{ "type": "Feature", "properties": { "NAME": "Сыктывкар", "PLACE": "city", "A_RGN": "Коми", "A_DSTRCT": null, "POPULATION": "241982", "REG_ID": 11 }, "geometry": { "type": "Point", "coordinates": [ 50.834057925545864, 61.667500711955732 ] } },
{ "type": "Feature", "properties": { "NAME": "Вятские Поляны", "PLACE": "town", "A_RGN": "Кировская область", "A_DSTRCT": "городской округ Вятские Поляны", "POPULATION": "38260", "REG_ID": 43 }, "geometry": { "type": "Point", "coordinates": [ 51.066467142364019, 56.222518846902219 ] } },
{ "type": "Feature", "properties": { "NAME": "Отрадный", "PLACE": "town", "A_RGN": "Самарская область", "A_DSTRCT": null, "POPULATION": "47769", "REG_ID": 63 }, "geometry": { "type": "Point", "coordinates": [ 51.34728860546516, 53.374630878343119 ] } },
{ "type": "Feature", "properties": { "NAME": "Похвистнево", "PLACE": "town", "A_RGN": "Самарская область", "A_DSTRCT": null, "POPULATION": "29090", "REG_ID": 63 }, "geometry": { "type": "Point", "coordinates": [ 52.12255322968754, 53.64526087644542 ] } },
{ "type": "Feature", "properties": { "NAME": "Можга", "PLACE": "town", "A_RGN": "Удмуртская республика", "A_DSTRCT": null, "POPULATION": "49841", "REG_ID": 18 }, "geometry": { "type": "Point", "coordinates": [ 52.217234450446135, 56.442140341263652 ] } },
{ "type": "Feature", "properties": { "NAME": "Бузулук", "PLACE": "town", "A_RGN": "Оренбургская область", "A_DSTRCT": null, "POPULATION": "82600", "REG_ID": 56 }, "geometry": { "type": "Point", "coordinates": [ 52.253117399577242, 52.78695781569234 ] } },
{ "type": "Feature", "properties": { "NAME": "Набережные Челны", "PLACE": "city", "A_RGN": "Татарстан", "A_DSTRCT": null, "POPULATION": "522048", "REG_ID": 16 }, "geometry": { "type": "Point", "coordinates": [ 52.398384946292097, 55.740492144463545 ] } },
{ "type": "Feature", "properties": { "NAME": "Бугуруслан", "PLACE": "town", "A_RGN": "Оренбургская область", "A_DSTRCT": null, "POPULATION": "52249", "REG_ID": 56 }, "geometry": { "type": "Point", "coordinates": [ 52.416200731320068, 53.619264412544254 ] } },
{ "type": "Feature", "properties": { "NAME": "Глазов", "PLACE": "city", "A_RGN": "Удмуртская республика", "A_DSTRCT": null, "POPULATION": "94909", "REG_ID": 18 }, "geometry": { "type": "Point", "coordinates": [ 52.645593326825292, 58.138535138795696 ] } },
{ "type": "Feature", "properties": { "NAME": "Нарьян-Мар", "PLACE": "city", "A_RGN": "Ненецкий автономный округ", "A_DSTRCT": null, "POPULATION": "19820", "REG_ID": 83 }, "geometry": { "type": "Point", "coordinates": [ 53.005674604968583, 67.636608375383091 ] } },
{ "type": "Feature", "properties": { "NAME": "Сорочинск", "PLACE": "town", "A_RGN": "Оренбургская область", "A_DSTRCT": null, "POPULATION": "29300", "REG_ID": 56 }, "geometry": { "type": "Point", "coordinates": [ 53.15337285355703, 52.425431765629469 ] } },
{ "type": "Feature", "properties": { "NAME": "Ижевск", "PLACE": "city", "A_RGN": "Удмуртская республика", "A_DSTRCT": null, "POPULATION": "637309", "REG_ID": 18 }, "geometry": { "type": "Point", "coordinates": [ 53.208538481761316, 56.865051381378017 ] } },
{ "type": "Feature", "properties": { "NAME": "Октябрьский", "PLACE": "town", "A_RGN": "Башкортостан", "A_DSTRCT": null, "POPULATION": "112249", "REG_ID": 2 }, "geometry": { "type": "Point", "coordinates": [ 53.465162392182826, 54.479448599157884 ] } },
{ "type": "Feature", "properties": { "NAME": "Ухта", "PLACE": "town", "A_RGN": "Коми", "A_DSTRCT": "городской округ Ухта", "POPULATION": "99155", "REG_ID": 11 }, "geometry": { "type": "Point", "coordinates": [ 53.683181054563661, 63.561023893243465 ] } },
{ "type": "Feature", "properties": { "NAME": "Сарапул", "PLACE": "city", "A_RGN": "Удмуртская республика", "A_DSTRCT": null, "POPULATION": "99869", "REG_ID": 18 }, "geometry": { "type": "Point", "coordinates": [ 53.818405750746592, 56.475828557555509 ] } },
{ "type": "Feature", "properties": { "NAME": "Агидель", "PLACE": "town", "A_RGN": "Башкортостан", "A_DSTRCT": "городской округ Агидель", "POPULATION": "15865", "REG_ID": 2 }, "geometry": { "type": "Point", "coordinates": [ 53.936537417992817, 55.897766372938129 ] } },
{ "type": "Feature", "properties": { "NAME": "Воткинск", "PLACE": "city", "A_RGN": "Удмуртская республика", "A_DSTRCT": null, "POPULATION": "98045", "REG_ID": 18 }, "geometry": { "type": "Point", "coordinates": [ 53.989706603766329, 57.051006266681973 ] } },
{ "type": "Feature", "properties": { "NAME": "Нефтекамск", "PLACE": "city", "A_RGN": "Башкортостан", "A_DSTRCT": null, "POPULATION": "124005", "REG_ID": 2 }, "geometry": { "type": "Point", "coordinates": [ 54.260614772122622, 56.097723947631529 ] } },
{ "type": "Feature", "properties": { "NAME": "Кудымкар", "PLACE": "town", "A_RGN": "Пермский край", "A_DSTRCT": "Кудымкарский городской округ", "POPULATION": "30739", "REG_ID": 59 }, "geometry": { "type": "Point", "coordinates": [ 54.663164920975838, 59.01313023199026 ] } },
{ "type": "Feature", "properties": { "NAME": "Оренбург", "PLACE": "city", "A_RGN": "Оренбургская область", "A_DSTRCT": null, "POPULATION": "548800", "REG_ID": 56 }, "geometry": { "type": "Point", "coordinates": [ 55.096271024640266, 51.76591703976721 ] } },
{ "type": "Feature", "properties": { "NAME": "Кумертау", "PLACE": "town", "A_RGN": "Башкортостан", "A_DSTRCT": null, "POPULATION": "61943", "REG_ID": 2 }, "geometry": { "type": "Point", "coordinates": [ 55.795598892873812, 52.759453868088926 ] } },
{ "type": "Feature", "properties": { "NAME": "Салават", "PLACE": "city", "A_RGN": "Башкортостан", "A_DSTRCT": null, "POPULATION": "154593", "REG_ID": 2 }, "geometry": { "type": "Point", "coordinates": [ 55.923744651585402, 53.36016987587346 ] } },
{ "type": "Feature", "properties": { "NAME": "Уфа", "PLACE": "city", "A_RGN": "Башкортостан", "A_DSTRCT": null, "POPULATION": "1096702", "REG_ID": 2 }, "geometry": { "type": "Point", "coordinates": [ 55.946806782771382, 54.72477979427893 ] } },
{ "type": "Feature", "properties": { "NAME": "Стерлитамак", "PLACE": "city", "A_RGN": "Башкортостан", "A_DSTRCT": null, "POPULATION": "277048", "REG_ID": 2 }, "geometry": { "type": "Point", "coordinates": [ 55.951355352460709, 53.630857854675554 ] } },
{ "type": "Feature", "properties": { "NAME": "Пермь", "PLACE": "city", "A_RGN": "Пермский край", "A_DSTRCT": null, "POPULATION": "1036469", "REG_ID": 59 }, "geometry": { "type": "Point", "coordinates": [ 56.245724948297386, 58.013487831874919 ] } },
{ "type": "Feature", "properties": { "NAME": "Звёздный", "PLACE": "town", "A_RGN": "Пермский край", "A_DSTRCT": null, "POPULATION": "8942", "REG_ID": 59 }, "geometry": { "type": "Point", "coordinates": [ 56.312532221964211, 57.73383213908928 ] } },
{ "type": "Feature", "properties": { "NAME": "Соликамск", "PLACE": "city", "A_RGN": "Пермский край", "A_DSTRCT": "Соликамский городской округ", "POPULATION": "95514", "REG_ID": 59 }, "geometry": { "type": "Point", "coordinates": [ 56.778376430991251, 59.647894642062909 ] } },
{ "type": "Feature", "properties": { "NAME": "Березники", "PLACE": "city", "A_RGN": "Пермский край", "A_DSTRCT": null, "POPULATION": "150696", "REG_ID": 59 }, "geometry": { "type": "Point", "coordinates": [ 56.802643459382573, 59.406958054730225 ] } },
{ "type": "Feature", "properties": { "NAME": "Кунгур", "PLACE": "town", "A_RGN": "Пермский край", "A_DSTRCT": null, "POPULATION": "66765", "REG_ID": 59 }, "geometry": { "type": "Point", "coordinates": [ 56.943321210874288, 57.427365481603019 ] } },
{ "type": "Feature", "properties": { "NAME": "Губаха", "PLACE": "town", "A_RGN": "Пермский край", "A_DSTRCT": "городской округ Губаха", "POPULATION": "21160", "REG_ID": 59 }, "geometry": { "type": "Point", "coordinates": [ 57.553995830074804, 58.840946288552963 ] } },
{ "type": "Feature", "properties": { "NAME": "Медногорск", "PLACE": "town", "A_RGN": "Оренбургская область", "A_DSTRCT": null, "POPULATION": "29100", "REG_ID": 56 }, "geometry": { "type": "Point", "coordinates": [ 57.579164344530909, 51.403487368397833 ] } },
{ "type": "Feature", "properties": { "NAME": "Лысьва", "PLACE": "town", "A_RGN": "Пермский край", "A_DSTRCT": "Лысьвенский городской округ", "POPULATION": "64038", "REG_ID": 59 }, "geometry": { "type": "Point", "coordinates": [ 57.801794941097718, 58.103590985285493 ] } },
{ "type": "Feature", "properties": { "NAME": "Усть-Катав", "PLACE": "town", "A_RGN": "Челябинская область", "A_DSTRCT": "Усть-Катавский городской округ", "POPULATION": "23064", "REG_ID": 74 }, "geometry": { "type": "Point", "coordinates": [ 58.152334885700753, 54.923023977871885 ] } },
{ "type": "Feature", "properties": { "NAME": "Новотроицк", "PLACE": "town", "A_RGN": "Оренбургская область", "A_DSTRCT": null, "POPULATION": "98000", "REG_ID": 56 }, "geometry": { "type": "Point", "coordinates": [ 58.297600688857145, 51.194851777833804 ] } },
{ "type": "Feature", "properties": { "NAME": "Белорецк", "PLACE": "town", "A_RGN": "Башкортостан", "A_DSTRCT": "Белорецкий район", "POPULATION": "66939", "REG_ID": 2 }, "geometry": { "type": "Point", "coordinates": [ 58.389477190823776, 53.957791634574008 ] } },
{ "type": "Feature", "properties": { "NAME": "Гай", "PLACE": "town", "A_RGN": "Оренбургская область", "A_DSTRCT": null, "POPULATION": "38900", "REG_ID": 56 }, "geometry": { "type": "Point", "coordinates": [ 58.43958374700302, 51.46992673622789 ] } },
{ "type": "Feature", "properties": { "NAME": "Трёхгорный", "PLACE": "town", "A_RGN": "Челябинская область", "A_DSTRCT": null, "POPULATION": "33460", "REG_ID": 74 }, "geometry": { "type": "Point", "coordinates": [ 58.458284305768856, 54.816767267600376 ] } },
{ "type": "Feature", "properties": { "NAME": "Орск", "PLACE": "city", "A_RGN": "Оренбургская область", "A_DSTRCT": null, "POPULATION": "242300", "REG_ID": 56 }, "geometry": { "type": "Point", "coordinates": [ 58.472869688492089, 51.228984620314989 ] } },
{ "type": "Feature", "properties": { "NAME": "Сибай", "PLACE": "town", "A_RGN": "Башкортостан", "A_DSTRCT": null, "POPULATION": "62562", "REG_ID": 2 }, "geometry": { "type": "Point", "coordinates": [ 58.662768196963732, 52.718806662220281 ] } },
{ "type": "Feature", "properties": { "NAME": "Магнитогорск", "PLACE": "city", "A_RGN": "Челябинская область", "A_DSTRCT": null, "POPULATION": "419100", "REG_ID": 74 }, "geometry": { "type": "Point", "coordinates": [ 58.982349016282427, 53.422783031876136 ] } },
{ "type": "Feature", "properties": { "NAME": "Верхнеуральск", "PLACE": "town", "A_RGN": "Челябинская область", "A_DSTRCT": "Верхнеуральский район", "POPULATION": "10054", "REG_ID": 74 }, "geometry": { "type": "Point", "coordinates": [ 59.210380699891843, 53.876509155745829 ] } },
{ "type": "Feature", "properties": { "NAME": "Златоуст", "PLACE": "city", "A_RGN": "Челябинская область", "A_DSTRCT": null, "POPULATION": "194800", "REG_ID": 74 }, "geometry": { "type": "Point", "coordinates": [ 59.678223335466789, 55.165942724017924 ] } },
{ "type": "Feature", "properties": { "NAME": "Первоуральск", "PLACE": "city", "A_RGN": "Свердловская область", "A_DSTRCT": "городской округ Первоуральск", "POPULATION": "125573", "REG_ID": 66 }, "geometry": { "type": "Point", "coordinates": [ 59.942032172511716, 56.903397969278963 ] } },
{ "type": "Feature", "properties": { "NAME": "Нижний Тагил", "PLACE": "city", "A_RGN": "Свердловская область", "A_DSTRCT": "городской округ Нижний Тагил", "POPULATION": "357280", "REG_ID": 66 }, "geometry": { "type": "Point", "coordinates": [ 59.949733532193932, 57.903697630650498 ] } },
{ "type": "Feature", "properties": { "NAME": "Миасс", "PLACE": "city", "A_RGN": "Челябинская область", "A_DSTRCT": null, "POPULATION": "158500", "REG_ID": 74 }, "geometry": { "type": "Point", "coordinates": [ 60.107287686097777, 55.063827126388048 ] } },
{ "type": "Feature", "properties": { "NAME": "Краснотурьинск", "PLACE": "town", "A_RGN": "Свердловская область", "A_DSTRCT": "городской округ Краснотурьинск", "POPULATION": "58874", "REG_ID": 66 }, "geometry": { "type": "Point", "coordinates": [ 60.192360144795387, 59.763043495250166 ] } },
{ "type": "Feature", "properties": { "NAME": "Карабаш", "PLACE": "town", "A_RGN": "Челябинская область", "A_DSTRCT": "Карабашский городской округ", "POPULATION": "12255", "REG_ID": 74 }, "geometry": { "type": "Point", "coordinates": [ 60.208481415179975, 55.48433682192227 ] } },
{ "type": "Feature", "properties": { "NAME": "Чебаркуль", "PLACE": "town", "A_RGN": "Челябинская область", "A_DSTRCT": null, "POPULATION": "47144", "REG_ID": 74 }, "geometry": { "type": "Point", "coordinates": [ 60.363382107672741, 54.976943935600524 ] } },
{ "type": "Feature", "properties": { "NAME": "Кыштым", "PLACE": "town", "A_RGN": "Челябинская область", "A_DSTRCT": "Кыштымский городской округ", "POPULATION": "38604", "REG_ID": 74 }, "geometry": { "type": "Point", "coordinates": [ 60.550131426519187, 55.708456022160362 ] } },
{ "type": "Feature", "properties": { "NAME": "Екатеринбург", "PLACE": "federal", "A_RGN": "Свердловская область", "A_DSTRCT": null, "POPULATION": "1412346", "REG_ID": 66 }, "geometry": { "type": "Point", "coordinates": [ 60.607144766218042, 56.837646722372313 ] } },
{ "type": "Feature", "properties": { "NAME": "Локомотивный", "PLACE": "town", "A_RGN": "Челябинская область", "A_DSTRCT": null, "POPULATION": "9935", "REG_ID": 74 }, "geometry": { "type": "Point", "coordinates": [ 60.613495815516622, 53.041069672885556 ] } },
{ "type": "Feature", "properties": { "NAME": "Озёрск", "PLACE": "town", "A_RGN": "Челябинская область", "A_DSTRCT": null, "POPULATION": "91760", "REG_ID": 74 }, "geometry": { "type": "Point", "coordinates": [ 60.704017807453852, 55.758995417947567 ] } },
{ "type": "Feature", "properties": { "NAME": "Снежинск", "PLACE": "town", "A_RGN": "Челябинская область", "A_DSTRCT": "Снежинский городской округ", "POPULATION": "49116", "REG_ID": 74 }, "geometry": { "type": "Point", "coordinates": [ 60.731584570445769, 56.08554647989952 ] } },
{ "type": "Feature", "properties": { "NAME": "Южноуральск", "PLACE": "town", "A_RGN": "Челябинская область", "A_DSTRCT": "Южноуральский городской округ", "POPULATION": "37565", "REG_ID": 74 }, "geometry": { "type": "Point", "coordinates": [ 61.266438014868946, 54.441001695163479 ] } },
{ "type": "Feature", "properties": { "NAME": "Челябинск", "PLACE": "city", "A_RGN": "Челябинская область", "A_DSTRCT": null, "POPULATION": "1169432", "REG_ID": 74 }, "geometry": { "type": "Point", "coordinates": [ 61.401466658905314, 55.158374804116121 ] } },
{ "type": "Feature", "properties": { "NAME": "Троицк", "PLACE": "town", "A_RGN": "Челябинская область", "A_DSTRCT": "Троицкий городской округ", "POPULATION": "76456", "REG_ID": 74 }, "geometry": { "type": "Point", "coordinates": [ 61.550923831568298, 54.083073196227602 ] } },
{ "type": "Feature", "properties": { "NAME": "Копейск", "PLACE": "city", "A_RGN": "Челябинская область", "A_DSTRCT": null, "POPULATION": "140876", "REG_ID": 74 }, "geometry": { "type": "Point", "coordinates": [ 61.620540068123162, 55.11173034996299 ] } },
{ "type": "Feature", "properties": { "NAME": "Каменск-Уральский", "PLACE": "city", "A_RGN": "Свердловская область", "A_DSTRCT": "городской округ Каменск-Уральский", "POPULATION": "171483", "REG_ID": 66 }, "geometry": { "type": "Point", "coordinates": [ 61.916663468224314, 56.413999191920588 ] } },
{ "type": "Feature", "properties": { "NAME": "Ирбит", "PLACE": "town", "A_RGN": "Свердловская область", "A_DSTRCT": null, "POPULATION": "37859", "REG_ID": 66 }, "geometry": { "type": "Point", "coordinates": [ 63.064523851743822, 57.670202734383928 ] } },
{ "type": "Feature", "properties": { "NAME": "Югорск", "PLACE": "town", "A_RGN": "Ханты-Мансийский автономный округ - Югра", "A_DSTRCT": null, "POPULATION": "35833", "REG_ID": 86 }, "geometry": { "type": "Point", "coordinates": [ 63.330007122595617, 61.313663583141121 ] } },
{ "type": "Feature", "properties": { "NAME": "Шадринск", "PLACE": "town", "A_RGN": "Курганская область", "A_DSTRCT": null, "POPULATION": "74567", "REG_ID": 45 }, "geometry": { "type": "Point", "coordinates": [ 63.628309160537484, 56.085924273498975 ] } },
{ "type": "Feature", "properties": { "NAME": "Воркута", "PLACE": "city", "A_RGN": "Коми", "A_DSTRCT": null, "POPULATION": "61638", "REG_ID": 11 }, "geometry": { "type": "Point", "coordinates": [ 64.038438105647501, 67.493654905242863 ] } },
{ "type": "Feature", "properties": { "NAME": "Урай", "PLACE": "town", "A_RGN": "Ханты-Мансийский автономный округ - Югра", "A_DSTRCT": null, "POPULATION": "39893", "REG_ID": 86 }, "geometry": { "type": "Point", "coordinates": [ 64.80229234904958, 60.127730794963099 ] } },
{ "type": "Feature", "properties": { "NAME": "Курган", "PLACE": "city", "A_RGN": "Курганская область", "A_DSTRCT": "городской округ Курган", "POPULATION": "345700", "REG_ID": 45 }, "geometry": { "type": "Point", "coordinates": [ 65.32066948606375, 55.452916775263525 ] } },
{ "type": "Feature", "properties": { "NAME": "Нягань", "PLACE": "town", "A_RGN": "Ханты-Мансийский автономный округ - Югра", "A_DSTRCT": null, "POPULATION": "55946", "REG_ID": 86 }, "geometry": { "type": "Point", "coordinates": [ 65.433326056210021, 62.143277376394714 ] } },
{ "type": "Feature", "properties": { "NAME": "Тюмень", "PLACE": "city", "A_RGN": "Тюменская область", "A_DSTRCT": "городской округ Тюмень", "POPULATION": "679861", "REG_ID": 72 }, "geometry": { "type": "Point", "coordinates": [ 65.5410187283601, 57.152120914419399 ] } },
{ "type": "Feature", "properties": { "NAME": "Ялуторовск", "PLACE": "town", "A_RGN": "Тюменская область", "A_DSTRCT": "городской округ Ялуторовск", "POPULATION": "38327", "REG_ID": 72 }, "geometry": { "type": "Point", "coordinates": [ 66.311486148765013, 56.653520952581758 ] } },
{ "type": "Feature", "properties": { "NAME": "Лабытнанги", "PLACE": "town", "A_RGN": "Ямало-Ненецкий автономный округ", "A_DSTRCT": null, "POPULATION": "26279", "REG_ID": 89 }, "geometry": { "type": "Point", "coordinates": [ 66.384483257453411, 66.65834881856216 ] } },
{ "type": "Feature", "properties": { "NAME": "Заводоуковск", "PLACE": "town", "A_RGN": "Тюменская область", "A_DSTRCT": "Заводоуковский городской округ", "POPULATION": "25316", "REG_ID": 72 }, "geometry": { "type": "Point", "coordinates": [ 66.537992854864015, 56.50788289902934 ] } },
{ "type": "Feature", "properties": { "NAME": "Салехард", "PLACE": "town", "A_RGN": "Ямало-Ненецкий автономный округ", "A_DSTRCT": null, "POPULATION": "46650", "REG_ID": 89 }, "geometry": { "type": "Point", "coordinates": [ 66.614046017126057, 66.536248910204804 ] } },
{ "type": "Feature", "properties": { "NAME": "Тобольск", "PLACE": "city", "A_RGN": "Тюменская область", "A_DSTRCT": "городской округ Тобольск", "POPULATION": "98052", "REG_ID": 72 }, "geometry": { "type": "Point", "coordinates": [ 68.249227028706599, 58.199907444809305 ] } },
{ "type": "Feature", "properties": { "NAME": "Ханты-Мансийск", "PLACE": "city", "A_RGN": "Ханты-Мансийский автономный округ - Югра", "A_DSTRCT": "городской округ Ханты-Мансийск", "POPULATION": "93493", "REG_ID": 86 }, "geometry": { "type": "Point", "coordinates": [ 69.017661577062412, 61.002122344632838 ] } },
{ "type": "Feature", "properties": { "NAME": "Ишим", "PLACE": "town", "A_RGN": "Тюменская область", "A_DSTRCT": "городской округ Ишим", "POPULATION": "65002", "REG_ID": 72 }, "geometry": { "type": "Point", "coordinates": [ 69.472032638275039, 56.109524992993769 ] } },
{ "type": "Feature", "properties": { "NAME": "Нефтеюганск", "PLACE": "city", "A_RGN": "Ханты-Мансийский автономный округ - Югра", "A_DSTRCT": null, "POPULATION": "125850", "REG_ID": 86 }, "geometry": { "type": "Point", "coordinates": [ 72.608497313584735, 61.089007900591405 ] } },
{ "type": "Feature", "properties": { "NAME": "Пыть-Ях", "PLACE": "town", "A_RGN": "Ханты-Мансийский автономный округ - Югра", "A_DSTRCT": null, "POPULATION": "41000", "REG_ID": 86 }, "geometry": { "type": "Point", "coordinates": [ 72.838386568712281, 60.753814278930783 ] } },
{ "type": "Feature", "properties": { "NAME": "Омск", "PLACE": "city", "A_RGN": "Омская область", "A_DSTRCT": null, "POPULATION": "1166092", "REG_ID": 55 }, "geometry": { "type": "Point", "coordinates": [ 73.370092678829678, 54.990013640499839 ] } },
{ "type": "Feature", "properties": { "NAME": "Сургут", "PLACE": "city", "A_RGN": "Ханты-Мансийский автономный округ - Югра", "A_DSTRCT": "городской округ Сургут", "POPULATION": "332313", "REG_ID": 86 }, "geometry": { "type": "Point", "coordinates": [ 73.394763112764238, 61.252744049730154 ] } },
{ "type": "Feature", "properties": { "NAME": "Когалым", "PLACE": "town", "A_RGN": "Ханты-Мансийский автономный округ - Югра", "A_DSTRCT": "городской округ Когалым", "POPULATION": "61011", "REG_ID": 86 }, "geometry": { "type": "Point", "coordinates": [ 74.487045827723904, 62.266696454233418 ] } },
{ "type": "Feature", "properties": { "NAME": "Муравленко", "PLACE": "town", "A_RGN": "Ямало-Ненецкий автономный округ", "A_DSTRCT": "городской округ Муравленко", "POPULATION": "33247", "REG_ID": 89 }, "geometry": { "type": "Point", "coordinates": [ 74.495129927022759, 63.793555116462421 ] } },
{ "type": "Feature", "properties": { "NAME": "Лангепас", "PLACE": "town", "A_RGN": "Ханты-Мансийский автономный округ - Югра", "A_DSTRCT": "городской округ Лангепас", "POPULATION": "42801", "REG_ID": 86 }, "geometry": { "type": "Point", "coordinates": [ 75.187593040256473, 61.245988518066007 ] } },
{ "type": "Feature", "properties": { "NAME": "Ноябрьск", "PLACE": "city", "A_RGN": "Ямало-Ненецкий автономный округ", "A_DSTRCT": null, "POPULATION": "108087", "REG_ID": 89 }, "geometry": { "type": "Point", "coordinates": [ 75.445784617781797, 63.199051973513633 ] } },
{ "type": "Feature", "properties": { "NAME": "Покачи", "PLACE": "town", "A_RGN": "Ханты-Мансийский автономный округ - Югра", "A_DSTRCT": null, "POPULATION": "17471", "REG_ID": 86 }, "geometry": { "type": "Point", "coordinates": [ 75.595516144282286, 61.742932399949161 ] } },
{ "type": "Feature", "properties": { "NAME": "Мегион", "PLACE": "town", "A_RGN": "Ханты-Мансийский автономный округ - Югра", "A_DSTRCT": "городской округ Мегион", "POPULATION": "48949", "REG_ID": 86 }, "geometry": { "type": "Point", "coordinates": [ 76.106512094005637, 61.034142586505617 ] } },
{ "type": "Feature", "properties": { "NAME": "Губкинский", "PLACE": "town", "A_RGN": "Ямало-Ненецкий автономный округ", "A_DSTRCT": "городской округ Губкинский", "POPULATION": "26254", "REG_ID": 89 }, "geometry": { "type": "Point", "coordinates": [ 76.488636171319669, 64.432919604374874 ] } },
{ "type": "Feature", "properties": { "NAME": "Нижневартовск", "PLACE": "city", "A_RGN": "Ханты-Мансийский автономный округ - Югра", "A_DSTRCT": null, "POPULATION": "265994", "REG_ID": 86 }, "geometry": { "type": "Point", "coordinates": [ 76.578662431724041, 60.932787028842874 ] } },
{ "type": "Feature", "properties": { "NAME": "Новый Уренгой", "PLACE": "city", "A_RGN": "Ямало-Ненецкий автономный округ", "A_DSTRCT": null, "POPULATION": "116450", "REG_ID": 89 }, "geometry": { "type": "Point", "coordinates": [ 76.677894335270565, 66.08401223914629 ] } },
{ "type": "Feature", "properties": { "NAME": "Радужный", "PLACE": "town", "A_RGN": "Ханты-Мансийский автономный округ - Югра", "A_DSTRCT": null, "POPULATION": "43177", "REG_ID": 86 }, "geometry": { "type": "Point", "coordinates": [ 77.46082534873797, 62.13408473981869 ] } },
{ "type": "Feature", "properties": { "NAME": "Стрежевой", "PLACE": "town", "A_RGN": "Томская область", "A_DSTRCT": null, "POPULATION": "41900", "REG_ID": 70 }, "geometry": { "type": "Point", "coordinates": [ 77.599080528175506, 60.731508135528976 ] } },
{ "type": "Feature", "properties": { "NAME": "Яровое", "PLACE": "town", "A_RGN": "Алтайский край", "A_DSTRCT": null, "POPULATION": "18167", "REG_ID": 22 }, "geometry": { "type": "Point", "coordinates": [ 78.562216867740688, 52.918262463862639 ] } },
{ "type": "Feature", "properties": { "NAME": "Славгород", "PLACE": "town", "A_RGN": "Алтайский край", "A_DSTRCT": null, "POPULATION": "30999", "REG_ID": 22 }, "geometry": { "type": "Point", "coordinates": [ 78.637120355710366, 52.998672811632275 ] } },
{ "type": "Feature", "properties": { "NAME": "Кедровый", "PLACE": "town", "A_RGN": "Томская область", "A_DSTRCT": null, "POPULATION": "2300", "REG_ID": 70 }, "geometry": { "type": "Point", "coordinates": [ 79.569170473038497, 57.560655286210576 ] } },
{ "type": "Feature", "properties": { "NAME": "Рубцовск", "PLACE": "city", "A_RGN": "Алтайский край", "A_DSTRCT": null, "POPULATION": "147425", "REG_ID": 22 }, "geometry": { "type": "Point", "coordinates": [ 81.214916879430447, 51.526377323512278 ] } },
{ "type": "Feature", "properties": { "NAME": "Камень-на-Оби", "PLACE": "town", "A_RGN": "Алтайский край", "A_DSTRCT": null, "POPULATION": "42177", "REG_ID": 22 }, "geometry": { "type": "Point", "coordinates": [ 81.346971007838519, 53.788462956805212 ] } },
{ "type": "Feature", "properties": { "NAME": "Змеиногорск", "PLACE": "town", "A_RGN": "Алтайский край", "A_DSTRCT": "Змеиногорский район", "POPULATION": "10613", "REG_ID": 22 }, "geometry": { "type": "Point", "coordinates": [ 82.184763959917262, 51.15712727053247 ] } },
{ "type": "Feature", "properties": { "NAME": "Обь", "PLACE": "town", "A_RGN": "Новосибирская область", "A_DSTRCT": null, "POPULATION": "25457", "REG_ID": 54 }, "geometry": { "type": "Point", "coordinates": [ 82.691795754671759, 54.993874528243801 ] } },
{ "type": "Feature", "properties": { "NAME": "Алейск", "PLACE": "town", "A_RGN": "Алтайский край", "A_DSTRCT": null, "POPULATION": "28493", "REG_ID": 22 }, "geometry": { "type": "Point", "coordinates": [ 82.779812020122506, 52.493625792824702 ] } },
{ "type": "Feature", "properties": { "NAME": "Новосибирск", "PLACE": "federal", "A_RGN": "Новосибирская область", "A_DSTRCT": null, "POPULATION": "1547910", "REG_ID": 54 }, "geometry": { "type": "Point", "coordinates": [ 82.921843044308716, 55.02696565118962 ] } },
{ "type": "Feature", "properties": { "NAME": "Бердск", "PLACE": "city", "A_RGN": "Новосибирская область", "A_DSTRCT": null, "POPULATION": "102 608", "REG_ID": 54 }, "geometry": { "type": "Point", "coordinates": [ 83.105211028779564, 54.756693107537387 ] } },
{ "type": "Feature", "properties": { "NAME": "Кольцово", "PLACE": "town", "A_RGN": "Новосибирская область", "A_DSTRCT": null, "POPULATION": "9570", "REG_ID": 54 }, "geometry": { "type": "Point", "coordinates": [ 83.185532584587762, 54.935519794843927 ] } },
{ "type": "Feature", "properties": { "NAME": "Искитим", "PLACE": "town", "A_RGN": "Новосибирская область", "A_DSTRCT": null, "POPULATION": "62756", "REG_ID": 54 }, "geometry": { "type": "Point", "coordinates": [ 83.301969410395614, 54.64137097323345 ] } },
{ "type": "Feature", "properties": { "NAME": "Барнаул", "PLACE": "city", "A_RGN": "Алтайский край", "A_DSTRCT": null, "POPULATION": "632784", "REG_ID": 22 }, "geometry": { "type": "Point", "coordinates": [ 83.776847026259006, 53.346110731982918 ] } },
{ "type": "Feature", "properties": { "NAME": "Сибирский", "PLACE": "town", "A_RGN": "Алтайский край", "A_DSTRCT": null, "POPULATION": "11525", "REG_ID": 22 }, "geometry": { "type": "Point", "coordinates": [ 83.8372261828479, 53.556227168483062 ] } },
{ "type": "Feature", "properties": { "NAME": "Новоалтайск", "PLACE": "town", "A_RGN": "Алтайский край", "A_DSTRCT": null, "POPULATION": "70988", "REG_ID": 22 }, "geometry": { "type": "Point", "coordinates": [ 83.937837357422481, 53.392079052798692 ] } },
{ "type": "Feature", "properties": { "NAME": "Северск", "PLACE": "city", "A_RGN": "Томская область", "A_DSTRCT": null, "POPULATION": "109700", "REG_ID": 70 }, "geometry": { "type": "Point", "coordinates": [ 84.879307519708632, 56.601950203349006 ] } },
{ "type": "Feature", "properties": { "NAME": "Заринск", "PLACE": "town", "A_RGN": "Алтайский край", "A_DSTRCT": null, "POPULATION": "47579", "REG_ID": 22 }, "geometry": { "type": "Point", "coordinates": [ 84.92511700642838, 53.702358500093986 ] } },
{ "type": "Feature", "properties": { "NAME": "Юрга", "PLACE": "town", "A_RGN": "Кемеровская область", "A_DSTRCT": null, "POPULATION": "83841", "REG_ID": 42 }, "geometry": { "type": "Point", "coordinates": [ 84.933130318643407, 55.712375593783726 ] } },
{ "type": "Feature", "properties": { "NAME": "Томск", "PLACE": "city", "A_RGN": "Томская область", "A_DSTRCT": null, "POPULATION": "557179", "REG_ID": 70 }, "geometry": { "type": "Point", "coordinates": [ 84.950623710549579, 56.487499226669861 ] } },
{ "type": "Feature", "properties": { "NAME": "Белокуриха", "PLACE": "town", "A_RGN": "Алтайский край", "A_DSTRCT": null, "POPULATION": "14526", "REG_ID": 22 }, "geometry": { "type": "Point", "coordinates": [ 84.991667161181823, 51.997929202864661 ] } },
{ "type": "Feature", "properties": { "NAME": "Бийск", "PLACE": "city", "A_RGN": "Алтайский край", "A_DSTRCT": null, "POPULATION": "204039", "REG_ID": 22 }, "geometry": { "type": "Point", "coordinates": [ 85.213304564404368, 52.538232648905641 ] } },
{ "type": "Feature", "properties": { "NAME": "Тайга", "PLACE": "town", "A_RGN": "Кемеровская область", "A_DSTRCT": null, "POPULATION": "25023", "REG_ID": 42 }, "geometry": { "type": "Point", "coordinates": [ 85.62963122375109, 56.063861789295217 ] } },
{ "type": "Feature", "properties": { "NAME": "Горно-Алтайск", "PLACE": "town", "A_RGN": "Алтай", "A_DSTRCT": null, "POPULATION": "61420", "REG_ID": 4 }, "geometry": { "type": "Point", "coordinates": [ 85.962622178770602, 51.956518134460879 ] } },
{ "type": "Feature", "properties": { "NAME": "Анжеро-Судженск", "PLACE": "town", "A_RGN": "Кемеровская область", "A_DSTRCT": null, "POPULATION": "80358", "REG_ID": 42 }, "geometry": { "type": "Point", "coordinates": [ 86.017654241883889, 56.076605216669684 ] } },
{ "type": "Feature", "properties": { "NAME": "Кемерово", "PLACE": "city", "A_RGN": "Кемеровская область", "A_DSTRCT": null, "POPULATION": "549159", "REG_ID": 42 }, "geometry": { "type": "Point", "coordinates": [ 86.085555265801702, 55.35391146949447 ] } },
{ "type": "Feature", "properties": { "NAME": "Ленинск-Кузнецкий", "PLACE": "city", "A_RGN": "Кемеровская область", "A_DSTRCT": null, "POPULATION": "98667", "REG_ID": 42 }, "geometry": { "type": "Point", "coordinates": [ 86.164461932139233, 54.664221725550597 ] } },
{ "type": "Feature", "properties": { "NAME": "Берёзовский", "PLACE": "town", "A_RGN": "Кемеровская область", "A_DSTRCT": null, "POPULATION": "49627", "REG_ID": 42 }, "geometry": { "type": "Point", "coordinates": [ 86.27283362525381, 55.668717501181526 ] } },
{ "type": "Feature", "properties": { "NAME": "Полысаево", "PLACE": "town", "A_RGN": "Кемеровская область", "A_DSTRCT": null, "POPULATION": "27979", "REG_ID": 42 }, "geometry": { "type": "Point", "coordinates": [ 86.274370055985642, 54.601920510458307 ] } },
{ "type": "Feature", "properties": { "NAME": "Белово", "PLACE": "town", "A_RGN": "Кемеровская область", "A_DSTRCT": null, "POPULATION": "73990", "REG_ID": 42 }, "geometry": { "type": "Point", "coordinates": [ 86.301786966635007, 54.418082575943373 ] } },
{ "type": "Feature", "properties": { "NAME": "Краснобродский", "PLACE": "town", "A_RGN": "Кемеровская область", "A_DSTRCT": null, "POPULATION": "15370", "REG_ID": 42 }, "geometry": { "type": "Point", "coordinates": [ 86.446461935984942, 54.156161834248394 ] } },
{ "type": "Feature", "properties": { "NAME": "Киселёвск", "PLACE": "city", "A_RGN": "Кемеровская область", "A_DSTRCT": null, "POPULATION": "95781", "REG_ID": 42 }, "geometry": { "type": "Point", "coordinates": [ 86.63384048676663, 54.003763869390056 ] } },
{ "type": "Feature", "properties": { "NAME": "Прокопьевск", "PLACE": "city", "A_RGN": "Кемеровская область", "A_DSTRCT": null, "POPULATION": "211000", "REG_ID": 42 }, "geometry": { "type": "Point", "coordinates": [ 86.736025445215986, 53.889746829580069 ] } },
{ "type": "Feature", "properties": { "NAME": "Новокузнецк", "PLACE": "city", "A_RGN": "Кемеровская область", "A_DSTRCT": null, "POPULATION": "567700", "REG_ID": 42 }, "geometry": { "type": "Point", "coordinates": [ 87.134461903669575, 53.756387900458535 ] } },
{ "type": "Feature", "properties": { "NAME": "Калтан", "PLACE": "town", "A_RGN": "Кемеровская область", "A_DSTRCT": null, "POPULATION": "24841", "REG_ID": 42 }, "geometry": { "type": "Point", "coordinates": [ 87.284548166953911, 53.518238734931543 ] } },
{ "type": "Feature", "properties": { "NAME": "Осинники", "PLACE": "town", "A_RGN": "Кемеровская область", "A_DSTRCT": null, "POPULATION": "46893", "REG_ID": 42 }, "geometry": { "type": "Point", "coordinates": [ 87.331262037808983, 53.605774480736123 ] } },
{ "type": "Feature", "properties": { "NAME": "Мыски", "PLACE": "town", "A_RGN": "Кемеровская область", "A_DSTRCT": null, "POPULATION": "45015", "REG_ID": 42 }, "geometry": { "type": "Point", "coordinates": [ 87.798666750313146, 53.712647679387082 ] } },
{ "type": "Feature", "properties": { "NAME": "Междуреченск", "PLACE": "city", "A_RGN": "Кемеровская область", "A_DSTRCT": null, "POPULATION": "103900", "REG_ID": 42 }, "geometry": { "type": "Point", "coordinates": [ 88.068811830746355, 53.685235498927469 ] } },
{ "type": "Feature", "properties": { "NAME": "Норильск", "PLACE": "city", "A_RGN": "Красноярский край", "A_DSTRCT": null, "POPULATION": "176559", "REG_ID": 24 }, "geometry": { "type": "Point", "coordinates": [ 88.197857524382371, 69.34882242169094 ] } },
{ "type": "Feature", "properties": { "NAME": "Шарыпово", "PLACE": "town", "A_RGN": "Красноярский край", "A_DSTRCT": null, "POPULATION": "37411", "REG_ID": 24 }, "geometry": { "type": "Point", "coordinates": [ 89.184693152185503, 55.534333376411254 ] } },
{ "type": "Feature", "properties": { "NAME": "Боготол", "PLACE": "town", "A_RGN": "Красноярский край", "A_DSTRCT": null, "POPULATION": "20717", "REG_ID": 24 }, "geometry": { "type": "Point", "coordinates": [ 89.529870448446971, 56.210306606545416 ] } },
{ "type": "Feature", "properties": { "NAME": "Солнечный", "PLACE": "town", "A_RGN": "Красноярский край", "A_DSTRCT": "ЗАТО Солнечный", "POPULATION": "9850", "REG_ID": 24 }, "geometry": { "type": "Point", "coordinates": [ 89.823995763417273, 55.282284035758735 ] } },
{ "type": "Feature", "properties": { "NAME": "Абаза", "PLACE": "town", "A_RGN": "Республика Хакасия", "A_DSTRCT": null, "POPULATION": "16238", "REG_ID": 19 }, "geometry": { "type": "Point", "coordinates": [ 90.088525903109172, 52.648906962350409 ] } },
{ "type": "Feature", "properties": { "NAME": "Назарово", "PLACE": "town", "A_RGN": "Красноярский край", "A_DSTRCT": null, "POPULATION": "51437", "REG_ID": 24 }, "geometry": { "type": "Point", "coordinates": [ 90.416727918222648, 56.010443078646404 ] } },
{ "type": "Feature", "properties": { "NAME": "Ачинск", "PLACE": "city", "A_RGN": "Красноярский край", "A_DSTRCT": null, "POPULATION": "106502", "REG_ID": 24 }, "geometry": { "type": "Point", "coordinates": [ 90.493606101215832, 56.268340013861589 ] } },
{ "type": "Feature", "properties": { "NAME": "Черногорск", "PLACE": "town", "A_RGN": "Республика Хакасия", "A_DSTRCT": null, "POPULATION": "73187", "REG_ID": 19 }, "geometry": { "type": "Point", "coordinates": [ 91.311504541566819, 53.82706887673239 ] } },
{ "type": "Feature", "properties": { "NAME": "Саяногорск", "PLACE": "town", "A_RGN": "Республика Хакасия", "A_DSTRCT": null, "POPULATION": "48851", "REG_ID": 19 }, "geometry": { "type": "Point", "coordinates": [ 91.409717183810372, 53.088211765710128 ] } },
{ "type": "Feature", "properties": { "NAME": "Абакан", "PLACE": "city", "A_RGN": "Республика Хакасия", "A_DSTRCT": null, "POPULATION": "173205", "REG_ID": 19 }, "geometry": { "type": "Point", "coordinates": [ 91.437172624862399, 53.714121926619171 ] } },
{ "type": "Feature", "properties": { "NAME": "Минусинск", "PLACE": "town", "A_RGN": "Красноярский край", "A_DSTRCT": null, "POPULATION": "68867", "REG_ID": 24 }, "geometry": { "type": "Point", "coordinates": [ 91.695530543369088, 53.699162875575951 ] } },
{ "type": "Feature", "properties": { "NAME": "Енисейск", "PLACE": "town", "A_RGN": "Красноярский край", "A_DSTRCT": null, "POPULATION": "18561", "REG_ID": 24 }, "geometry": { "type": "Point", "coordinates": [ 92.172897198670341, 58.452130350108362 ] } },
{ "type": "Feature", "properties": { "NAME": "Кедровый", "PLACE": "town", "A_RGN": "Красноярский край", "A_DSTRCT": null, "POPULATION": "5317", "REG_ID": 24 }, "geometry": { "type": "Point", "coordinates": [ 92.321608331307061, 56.236120852839946 ] } },
{ "type": "Feature", "properties": { "NAME": "Дивногорск", "PLACE": "town", "A_RGN": "Красноярский край", "A_DSTRCT": null, "POPULATION": "28857", "REG_ID": 24 }, "geometry": { "type": "Point", "coordinates": [ 92.373611421619842, 55.958521278011744 ] } },
{ "type": "Feature", "properties": { "NAME": "Лесосибирск", "PLACE": "town", "A_RGN": "Красноярский край", "A_DSTRCT": null, "POPULATION": "60277", "REG_ID": 24 }, "geometry": { "type": "Point", "coordinates": [ 92.484055021462595, 58.222421109891123 ] } },
{ "type": "Feature", "properties": { "NAME": "Красноярск", "PLACE": "city", "A_RGN": "Красноярский край", "A_DSTRCT": null, "POPULATION": "1035528", "REG_ID": 24 }, "geometry": { "type": "Point", "coordinates": [ 92.868805407711008, 56.007149347649793 ] } },
{ "type": "Feature", "properties": { "NAME": "Сосновоборск", "PLACE": "town", "A_RGN": "Красноярский край", "A_DSTRCT": null, "POPULATION": "35532", "REG_ID": 24 }, "geometry": { "type": "Point", "coordinates": [ 93.336900184191748, 56.12038530343321 ] } },
{ "type": "Feature", "properties": { "NAME": "Железногорск", "PLACE": "city", "A_RGN": "Красноярский край", "A_DSTRCT": null, "POPULATION": "84930", "REG_ID": 24 }, "geometry": { "type": "Point", "coordinates": [ 93.531149274457761, 56.248560773836495 ] } },
{ "type": "Feature", "properties": { "NAME": "Кызыл", "PLACE": "city", "A_RGN": "Тыва", "A_DSTRCT": null, "POPULATION": "113986", "REG_ID": 17 }, "geometry": { "type": "Point", "coordinates": [ 94.421650968325991, 51.705561132964448 ] } },
{ "type": "Feature", "properties": { "NAME": "Зеленогорск", "PLACE": "town", "A_RGN": "Красноярский край", "A_DSTRCT": null, "POPULATION": "64343", "REG_ID": 24 }, "geometry": { "type": "Point", "coordinates": [ 94.58743406240383, 56.112469831281722 ] } },
{ "type": "Feature", "properties": { "NAME": "Бородино", "PLACE": "town", "A_RGN": "Красноярский край", "A_DSTRCT": null, "POPULATION": "16522", "REG_ID": 24 }, "geometry": { "type": "Point", "coordinates": [ 94.892758579997704, 55.898120058781082 ] } },
{ "type": "Feature", "properties": { "NAME": "Канск", "PLACE": "city", "A_RGN": "Красноярский край", "A_DSTRCT": null, "POPULATION": "92142", "REG_ID": 24 }, "geometry": { "type": "Point", "coordinates": [ 95.704922410390211, 56.204922361004641 ] } },
{ "type": "Feature", "properties": { "NAME": "Тулун", "PLACE": "town", "A_RGN": "Иркутская область", "A_DSTRCT": null, "POPULATION": "44603", "REG_ID": 38 }, "geometry": { "type": "Point", "coordinates": [ 100.57736227898882, 54.561063651646684 ] } },
{ "type": "Feature", "properties": { "NAME": "Братск", "PLACE": "city", "A_RGN": "Иркутская область", "A_DSTRCT": null, "POPULATION": "246348", "REG_ID": 38 }, "geometry": { "type": "Point", "coordinates": [ 101.60934650794519, 56.162307512351262 ] } },
{ "type": "Feature", "properties": { "NAME": "Зима", "PLACE": "town", "A_RGN": "Иркутская область", "A_DSTRCT": null, "POPULATION": "32522", "REG_ID": 38 }, "geometry": { "type": "Point", "coordinates": [ 102.0508889264643, 53.927381718951665 ] } },
{ "type": "Feature", "properties": { "NAME": "Саянск", "PLACE": "town", "A_RGN": "Иркутская область", "A_DSTRCT": null, "POPULATION": "40786", "REG_ID": 38 }, "geometry": { "type": "Point", "coordinates": [ 102.16767196259255, 54.107402918616295 ] } },
{ "type": "Feature", "properties": { "NAME": "Усть-Илимск", "PLACE": "town", "A_RGN": "Иркутская область", "A_DSTRCT": null, "POPULATION": "95595", "REG_ID": 38 }, "geometry": { "type": "Point", "coordinates": [ 102.73215870467513, 57.958526100758718 ] } },
{ "type": "Feature", "properties": { "NAME": "Черемхово", "PLACE": "town", "A_RGN": "Иркутская область", "A_DSTRCT": null, "POPULATION": "52650", "REG_ID": 38 }, "geometry": { "type": "Point", "coordinates": [ 103.06832196677527, 53.147416936945632 ] } },
{ "type": "Feature", "properties": { "NAME": "Свирск", "PLACE": "town", "A_RGN": "Иркутская область", "A_DSTRCT": null, "POPULATION": "13649", "REG_ID": 38 }, "geometry": { "type": "Point", "coordinates": [ 103.34051562169508, 53.065256723373707 ] } },
{ "type": "Feature", "properties": { "NAME": "Усолье-Сибирское", "PLACE": "town", "A_RGN": "Иркутская область", "A_DSTRCT": null, "POPULATION": "83364", "REG_ID": 38 }, "geometry": { "type": "Point", "coordinates": [ 103.66027027299403, 52.750145427161371 ] } },
{ "type": "Feature", "properties": { "NAME": "Иркутск", "PLACE": "city", "A_RGN": "Иркутская область", "A_DSTRCT": null, "POPULATION": "593400", "REG_ID": 38 }, "geometry": { "type": "Point", "coordinates": [ 104.27878739469708, 52.288585183442237 ] } },
{ "type": "Feature", "properties": { "NAME": "Улан-Удэ", "PLACE": "city", "A_RGN": "Бурятия", "A_DSTRCT": null, "POPULATION": "421453", "REG_ID": 3 }, "geometry": { "type": "Point", "coordinates": [ 107.581854004604, 51.834774578212503 ] } },
{ "type": "Feature", "properties": { "NAME": "Петровск-Забайкальский", "PLACE": "town", "A_RGN": "Забайкальский край", "A_DSTRCT": null, "POPULATION": "17486", "REG_ID": 75 }, "geometry": { "type": "Point", "coordinates": [ 108.85269272405256, 51.274252042255654 ] } },
{ "type": "Feature", "properties": { "NAME": "Северобайкальск", "PLACE": "town", "A_RGN": "Бурятия", "A_DSTRCT": null, "POPULATION": "24209", "REG_ID": 3 }, "geometry": { "type": "Point", "coordinates": [ 109.33367398459217, 55.635082575632069 ] } },
{ "type": "Feature", "properties": { "NAME": "Горный", "PLACE": "town", "A_RGN": "Забайкальский край", "A_DSTRCT": "ЗАТО Горный", "POPULATION": "11588", "REG_ID": 75 }, "geometry": { "type": "Point", "coordinates": [ 113.03134637054927, 51.553781304317255 ] } },
{ "type": "Feature", "properties": { "NAME": "Чита", "PLACE": "city", "A_RGN": "Забайкальский край", "A_DSTRCT": "городской округ Чита", "POPULATION": "335760", "REG_ID": 75 }, "geometry": { "type": "Point", "coordinates": [ 113.49905538738462, 52.032524309771489 ] } },
{ "type": "Feature", "properties": { "NAME": "Агинское", "PLACE": "town", "A_RGN": "Забайкальский край", "A_DSTRCT": "городской округ Агинское", "POPULATION": "16979", "REG_ID": 75 }, "geometry": { "type": "Point", "coordinates": [ 114.54246112877972, 51.106301690118663 ] } },
{ "type": "Feature", "properties": { "NAME": "Тында", "PLACE": "town", "A_RGN": "Амурская область", "A_DSTRCT": "городской округ Тында", "POPULATION": "34169", "REG_ID": 28 }, "geometry": { "type": "Point", "coordinates": [ 124.73524231621683, 55.14932182046131 ] } },
{ "type": "Feature", "properties": { "NAME": "Зея", "PLACE": "town", "A_RGN": "Амурская область", "A_DSTRCT": null, "POPULATION": "24082", "REG_ID": 28 }, "geometry": { "type": "Point", "coordinates": [ 127.26973028087848, 53.739709283582314 ] } },
{ "type": "Feature", "properties": { "NAME": "Благовещенск", "PLACE": "city", "A_RGN": "Амурская область", "A_DSTRCT": "городской округ Благовещенск", "POPULATION": "220077", "REG_ID": 28 }, "geometry": { "type": "Point", "coordinates": [ 127.5253976122052, 50.289814089844967 ] } },
{ "type": "Feature", "properties": { "NAME": "Шимановск", "PLACE": "town", "A_RGN": "Амурская область", "A_DSTRCT": null, "POPULATION": "19116", "REG_ID": 28 }, "geometry": { "type": "Point", "coordinates": [ 127.66974209076437, 51.999889834736408 ] } },
{ "type": "Feature", "properties": { "NAME": "Углегорск", "PLACE": "town", "A_RGN": "Амурская область", "A_DSTRCT": null, "POPULATION": "6102", "REG_ID": 28 }, "geometry": { "type": "Point", "coordinates": [ 128.12164517183413, 51.764114770232659 ] } },
{ "type": "Feature", "properties": { "NAME": "Свободный", "PLACE": "town", "A_RGN": "Амурская область", "A_DSTRCT": "городской округ Свободный", "POPULATION": "56246", "REG_ID": 28 }, "geometry": { "type": "Point", "coordinates": [ 128.13294910119905, 51.376668825271906 ] } },
{ "type": "Feature", "properties": { "NAME": "Белогорск", "PLACE": "town", "A_RGN": "Амурская область", "A_DSTRCT": null, "POPULATION": "67572", "REG_ID": 28 }, "geometry": { "type": "Point", "coordinates": [ 128.47109522464109, 50.920636519993714 ] } },
{ "type": "Feature", "properties": { "NAME": "Райчихинск", "PLACE": "town", "A_RGN": "Амурская область", "A_DSTRCT": "городской округ Райчихинск", "POPULATION": "18107", "REG_ID": 28 }, "geometry": { "type": "Point", "coordinates": [ 129.40163488142949, 49.796194011569696 ] } },
{ "type": "Feature", "properties": { "NAME": "Прогресс", "PLACE": "city", "A_RGN": "Амурская область", "A_DSTRCT": "городской округ Прогресс", "POPULATION": "10580", "REG_ID": 28 }, "geometry": { "type": "Point", "coordinates": [ 129.67291654455789, 49.74718904329761 ] } },
{ "type": "Feature", "properties": { "NAME": "Якутск", "PLACE": "city", "A_RGN": "Республика Саха (Якутия)", "A_DSTRCT": null, "POPULATION": "294138", "REG_ID": 14 }, "geometry": { "type": "Point", "coordinates": [ 129.72974171233622, 62.026850448326279 ] } },
{ "type": "Feature", "properties": { "NAME": "Жатай", "PLACE": "town", "A_RGN": "Республика Саха (Якутия)", "A_DSTRCT": null, "POPULATION": "9432", "REG_ID": 14 },