{
"type": "FeatureCollection",
"crs": { "type": "name", "properties": { "name": "urn:ogc:def:crs:EPSG::4202" } },
                                                                                
"features": [
{ "type": "Feature", "properties": { "OSM_ID": 1575069719.000000, "NAME": "Провидения", "NAME_EN": "Provideniya", "NAME_RU": "Провидения", "PLACE": "town", "A_CNTR": "RU", "A_RGN": "Чукотский автономный округ", "A_DSTRCT": "Провиденский район", "A_PSTCD": "689251", "POPULATION": "1993" }, "geometry": { "type": "Point", "coordinates": [ -173.22854380819314, 64.424173453605889 ] } },
{ "type": "Feature", "properties": { "OSM_ID": 27048978.000000, "NAME": "Балтийск", "NAME_EN": "Baltiysk", "NAME_RU": "Балтийск", "PLACE": "town", "A_CNTR": "RU", "A_RGN": "Калининградская область", "A_DSTRCT": null, "A_PSTCD": null, "POPULATION": "34057" }, "geometry": { "type": "Point", "coordinates": [ 19.911268849757008, 54.653914622831806 ] } },
{ "type": "Feature", "properties": { "OSM_ID": 60238036.000000, "NAME": "Мамоново", "NAME_EN": "Mamonovo", "NAME_RU": "Мамоново", "PLACE": "town", "A_CNTR": "RU", "A_RGN": "Калининградская область", "A_DSTRCT": "Мамоновский городской округ", "A_PSTCD": null, "POPULATION": "7393" }, "geometry": { "type": "Point", "coordinates": [ 19.941661559963347, 54.462061450541377 ] } },
{ "type": "Feature", "properties": { "OSM_ID": 60237889.000000, "NAME": "Светлый", "NAME_EN": null, "NAME_RU": "Светлый", "PLACE": "town", "A_CNTR": "RU", "A_RGN": "Калининградская область", "A_DSTRCT": null, "A_PSTCD": null, "POPULATION": "22225" }, "geometry": { "type": "Point", "coordinates": [ 20.131380348366157, 54.671789139875088 ] } },
{ "type": "Feature", "properties": { "OSM_ID": 394996639.000000, "NAME": "Светлогорск", "NAME_EN": "Svetlogorsk", "NAME_RU": "Светлогорск", "PLACE": "town", "A_CNTR": "RU", "A_RGN": "Калининградская область", "A_DSTRCT": null, "A_PSTCD": null, "POPULATION": "11202" }, "geometry": { "type": "Point", "coordinates": [ 20.154833189850486, 54.93998674252699 ] } },
{ "type": "Feature", "properties": { "OSM_ID": 255910496.000000, "NAME": "Ладушкин", "NAME_EN": null, "NAME_RU": "Ладушкин", "PLACE": "town", "A_CNTR": "RU", "A_RGN": "Калининградская область", "A_DSTRCT": "Ладушкинский городской округ", "A_PSTCD": null, "POPULATION": "3941" }, "geometry": { "type": "Point", "coordinates": [ 20.173665627419879, 54.569701579567813 ] } },
{ "type": "Feature", "properties": { "OSM_ID": 261008814.000000, "NAME": "Пионерский", "NAME_EN": "Pionersky", "NAME_RU": "Пионерский", "PLACE": "town", "A_CNTR": "RU", "A_RGN": "Калининградская область", "A_DSTRCT": null, "A_PSTCD": null, "POPULATION": "12031" }, "geometry": { "type": "Point", "coordinates": [ 20.226137313464214, 54.946664062976332 ] } },
{ "type": "Feature", "properties": { "OSM_ID": 599304464.000000, "NAME": "Корнево", "NAME_EN": null, "NAME_RU": "Корнево", "PLACE": "town", "A_CNTR": "RU", "A_RGN": "Калининградская область", "A_DSTRCT": "Багратионовский район", "A_PSTCD": null, "POPULATION": "3000" }, "geometry": { "type": "Point", "coordinates": [ 20.294273366247694, 54.444335741772491 ] } },
{ "type": "Feature", "properties": { "OSM_ID": 60237699.000000, "NAME": "Зеленоградск", "NAME_EN": "Zelenogradsk", "NAME_RU": "Зеленоградск", "PLACE": "town", "A_CNTR": "RU", "A_RGN": "Калининградская область", "A_DSTRCT": "Зеленоградский район", "A_PSTCD": null, "POPULATION": "12025" }, "geometry": { "type": "Point", "coordinates": [ 20.475237246085214, 54.958472973400269 ] } },
{ "type": "Feature", "properties": { "OSM_ID": 1844904778.000000, "NAME": "Гурьевск", "NAME_EN": "Guryevsk", "NAME_RU": "Гурьевск", "PLACE": "town", "A_CNTR": "RU", "A_RGN": "Калининградская область", "A_DSTRCT": null, "A_PSTCD": null, "POPULATION": "12068" }, "geometry": { "type": "Point", "coordinates": [ 20.611531879503456, 54.771015386313977 ] } },
{ "type": "Feature", "properties": { "OSM_ID": 60238153.000000, "NAME": "Багратионовск", "NAME_EN": "Bagrationovsk", "NAME_RU": "Багратионовск", "PLACE": "town", "A_CNTR": "RU", "A_RGN": "Калининградская область", "A_DSTRCT": "Багратионовский район", "A_PSTCD": null, "POPULATION": "6579" }, "geometry": { "type": "Point", "coordinates": [ 20.640720308476194, 54.385251533914712 ] } },
{ "type": "Feature", "properties": { "OSM_ID": 767068249.000000, "NAME": "Правдинск", "NAME_EN": "Pravdinsk", "NAME_RU": "Правдинск", "PLACE": "town", "A_CNTR": null, "A_RGN": "Калининградская область", "A_DSTRCT": null, "A_PSTCD": null, "POPULATION": "4426" }, "geometry": { "type": "Point", "coordinates": [ 21.014187011060837, 54.445573801475469 ] } },
{ "type": "Feature", "properties": { "OSM_ID": 1681538643.000000, "NAME": "Гвардейск", "NAME_EN": "Gvardeysk", "NAME_RU": "Гвардейск", "PLACE": "town", "A_CNTR": "RU", "A_RGN": "Калининградская область", "A_DSTRCT": null, "A_PSTCD": null, "POPULATION": "12979" }, "geometry": { "type": "Point", "coordinates": [ 21.072139235833792, 54.646259260788675 ] } },
{ "type": "Feature", "properties": { "OSM_ID": 60238585.000000, "NAME": "Полесск", "NAME_EN": "Polessk", "NAME_RU": "Полесск", "PLACE": "town", "A_CNTR": "RU", "A_RGN": "Калининградская область", "A_DSTRCT": "Полесский район", "A_PSTCD": null, "POPULATION": "7615" }, "geometry": { "type": "Point", "coordinates": [ 21.107223311778874, 54.858687579738174 ] } },
{ "type": "Feature", "properties": { "OSM_ID": 970914753.000000, "NAME": "Знаменск", "NAME_EN": null, "NAME_RU": "Знаменск", "PLACE": "town", "A_CNTR": "RU", "A_RGN": "Калининградская область", "A_DSTRCT": null, "A_PSTCD": "238200", "POPULATION": "4300" }, "geometry": { "type": "Point", "coordinates": [ 21.227997574617898, 54.613963316966398 ] } },
{ "type": "Feature", "properties": { "OSM_ID": 766484437.000000, "NAME": "Железнодорожный", "NAME_EN": "Zheleznodorozhny", "NAME_RU": "Железнодорожный", "PLACE": "town", "A_CNTR": null, "A_RGN": "Калининградская область", "A_DSTRCT": null, "A_PSTCD": null, "POPULATION": "2880" }, "geometry": { "type": "Point", "coordinates": [ 21.305738732811719, 54.360497256250746 ] } },
{ "type": "Feature", "properties": { "OSM_ID": 478808135.000000, "NAME": "Славск", "NAME_EN": "Slavsk", "NAME_RU": "Славск", "PLACE": "town", "A_CNTR": "RU", "A_RGN": "Калининградская область", "A_DSTRCT": "Славский район", "A_PSTCD": null, "POPULATION": "5033" }, "geometry": { "type": "Point", "coordinates": [ 21.679253649174523, 55.043924349479902 ] } },
{ "type": "Feature", "properties": { "OSM_ID": 266714836.000000, "NAME": "Черняховск", "NAME_EN": "Chernyakhovsk", "NAME_RU": "Черняховск", "PLACE": "town", "A_CNTR": "RU", "A_RGN": "Калининградская область", "A_DSTRCT": "Черняховский район", "A_PSTCD": null, "POPULATION": "42220" }, "geometry": { "type": "Point", "coordinates": [ 21.809092578329018, 54.636483351630154 ] } },
{ "type": "Feature", "properties": { "OSM_ID": 60238387.000000, "NAME": "Советск", "NAME_EN": "Sovetsk", "NAME_RU": "Советск", "PLACE": "town", "A_CNTR": "RU", "A_RGN": "Калининградская область", "A_DSTRCT": null, "A_PSTCD": null, "POPULATION": "44650" }, "geometry": { "type": "Point", "coordinates": [ 21.891422607732228, 55.076427084848916 ] } },
{ "type": "Feature", "properties": { "OSM_ID": 304337561.000000, "NAME": "Озёрск", "NAME_EN": "Ozyorsk", "NAME_RU": "Озёрск", "PLACE": "town", "A_CNTR": null, "A_RGN": "Калининградская область", "A_DSTRCT": null, "A_PSTCD": null, "POPULATION": "4740" }, "geometry": { "type": "Point", "coordinates": [ 22.014522878202325, 54.407168108659555 ] } },
{ "type": "Feature", "properties": { "OSM_ID": 60238408.000000, "NAME": "Неман", "NAME_EN": null, "NAME_RU": "Неман", "PLACE": "town", "A_CNTR": "RU", "A_RGN": "Калининградская область", "A_DSTRCT": "Неманский район", "A_PSTCD": null, "POPULATION": "12000" }, "geometry": { "type": "Point", "coordinates": [ 22.029525707910114, 55.034398152186341 ] } },
{ "type": "Feature", "properties": { "OSM_ID": 1420696955.000000, "NAME": "Гусев", "NAME_EN": "Gusev", "NAME_RU": "Гусев", "PLACE": "town", "A_CNTR": "RU", "A_RGN": "Калининградская область", "A_DSTRCT": null, "A_PSTCD": null, "POPULATION": "28000" }, "geometry": { "type": "Point", "coordinates": [ 22.201679685688735, 54.590573336301006 ] } },
{ "type": "Feature", "properties": { "OSM_ID": 301246150.000000, "NAME": "Краснознаменск", "NAME_EN": "Krasnoznamensk", "NAME_RU": "Краснознаменск", "PLACE": "town", "A_CNTR": "RU", "A_RGN": "Калининградская область", "A_DSTRCT": "Краснознаменский район", "A_PSTCD": "238730", "POPULATION": "3522" }, "geometry": { "type": "Point", "coordinates": [ 22.491514529920341, 54.940189170516113 ] } },
{ "type": "Feature", "properties": { "OSM_ID": 914387646.000000, "NAME": "Нестеров", "NAME_EN": null, "NAME_RU": "Нестеров", "PLACE": "town", "A_CNTR": null, "A_RGN": "Калининградская область", "A_DSTRCT": null, "A_PSTCD": null, "POPULATION": "4889" }, "geometry": { "type": "Point", "coordinates": [ 22.572110471676989, 54.631060646446358 ] } },
{ "type": "Feature", "properties": { "OSM_ID": 706163973.000000, "NAME": "Печоры", "NAME_EN": "Pechory", "NAME_RU": "Печоры", "PLACE": "town", "A_CNTR": "RU", "A_RGN": "Псковская область", "A_DSTRCT": "Печорский район", "A_PSTCD": null, "POPULATION": "11164" }, "geometry": { "type": "Point", "coordinates": [ 27.608177720006822, 57.811746985296182 ] } },
{ "type": "Feature", "properties": { "OSM_ID": 304552666.000000, "NAME": "Гдов", "NAME_EN": "Gdov", "NAME_RU": "Гдов", "PLACE": "town", "A_CNTR": "RU", "A_RGN": "Псковская область", "A_DSTRCT": "Гдовский район", "A_PSTCD": null, "POPULATION": "3971" }, "geometry": { "type": "Point", "coordinates": [ 27.815674625639002, 58.741514758520886 ] } },
{ "type": "Feature", "properties": { "OSM_ID": 827182658.000000, "NAME": "Пыталово", "NAME_EN": "Pytalovo", "NAME_RU": "Пыталово", "PLACE": "town", "A_CNTR": "RU", "A_RGN": "Псковская область", "A_DSTRCT": "Пыталовский район", "A_PSTCD": null, "POPULATION": "5819" }, "geometry": { "type": "Point", "coordinates": [ 27.920791689408585, 57.061301484092795 ] } },
{ "type": "Feature", "properties": { "OSM_ID": 342420981.000000, "NAME": "Палкино", "NAME_EN": null, "NAME_RU": null, "PLACE": "town", "A_CNTR": null, "A_RGN": "Псковская область", "A_DSTRCT": null, "A_PSTCD": null, "POPULATION": "2926" }, "geometry": { "type": "Point", "coordinates": [ 28.009347336165465, 57.539117770233567 ] } },
{ "type": "Feature", "properties": { "OSM_ID": 1833198964.000000, "NAME": "Сланцы", "NAME_EN": "Slantsy", "NAME_RU": "Сланцы", "PLACE": "town", "A_CNTR": "RU", "A_RGN": "Ленинградская область", "A_DSTRCT": "Сланцевский район", "A_PSTCD": null, "POPULATION": "33485" }, "geometry": { "type": "Point", "coordinates": [ 28.096766065548351, 59.114325461591534 ] } },
{ "type": "Feature", "properties": { "OSM_ID": 217323851.000000, "NAME": "Ивангород", "NAME_EN": "Ivangorod", "NAME_RU": null, "PLACE": "town", "A_CNTR": "RU", "A_RGN": "Ленинградская область", "A_DSTRCT": "Кингисеппский район", "A_PSTCD": null, "POPULATION": "10688" }, "geometry": { "type": "Point", "coordinates": [ 28.226332278853342, 59.374282631069626 ] } },
{ "type": "Feature", "properties": { "OSM_ID": 278141459.000000, "NAME": "Красногородск", "NAME_EN": "Krasnogorodsk", "NAME_RU": "Красногородск", "PLACE": "town", "A_CNTR": "RU", "A_RGN": "Псковская область", "A_DSTRCT": "Красногородский район", "A_PSTCD": null, "POPULATION": "3869" }, "geometry": { "type": "Point", "coordinates": [ 28.290927396645966, 56.828264213419089 ] } },
{ "type": "Feature", "properties": { "OSM_ID": 27025689.000000, "NAME": "Псков", "NAME_EN": "Pskov", "NAME_RU": "Псков", "PLACE": "city", "A_CNTR": "RU", "A_RGN": "Псковская область", "A_DSTRCT": null, "A_PSTCD": null, "POPULATION": "206730" }, "geometry": { "type": "Point", "coordinates": [ 28.334335593584786, 57.815840381280864 ] } },
{ "type": "Feature", "properties": { "OSM_ID": 246830274.000000, "NAME": "Остров", "NAME_EN": "Ostrov", "NAME_RU": "Остров", "PLACE": "town", "A_CNTR": "RU", "A_RGN": "Псковская область", "A_DSTRCT": "Островский район", "A_PSTCD": "181350", "POPULATION": "21700" }, "geometry": { "type": "Point", "coordinates": [ 28.357780764361063, 57.343067154021412 ] } },
{ "type": "Feature", "properties": { "OSM_ID": 27084320.000000, "NAME": "Себеж", "NAME_EN": "Sebezh", "NAME_RU": "Себеж", "PLACE": "town", "A_CNTR": "RU", "A_RGN": "Псковская область", "A_DSTRCT": "Себежский район", "A_PSTCD": null, "POPULATION": "6342" }, "geometry": { "type": "Point", "coordinates": [ 28.478508383722055, 56.287877987897787 ] } },
{ "type": "Feature", "properties": { "OSM_ID": 34390960.000000, "NAME": "Высоцк", "NAME_EN": "Vysotsk", "NAME_RU": "Высоцк", "PLACE": "town", "A_CNTR": "RU", "A_RGN": "Ленинградская область", "A_DSTRCT": "Выборгский район", "A_PSTCD": "188909", "POPULATION": "1155" }, "geometry": { "type": "Point", "coordinates": [ 28.568801560169998, 60.626496249513259 ] } },
{ "type": "Feature", "properties": { "OSM_ID": 217317194.000000, "NAME": "Кингисепп", "NAME_EN": "Kingisepp", "NAME_RU": "Кингисепп", "PLACE": "town", "A_CNTR": "RU", "A_RGN": "Ленинградская область", "A_DSTRCT": "Кингисеппский район", "A_PSTCD": null, "POPULATION": "48128" }, "geometry": { "type": "Point", "coordinates": [ 28.611258814419401, 59.374949703594368 ] } },
{ "type": "Feature", "properties": { "OSM_ID": 34390476.000000, "NAME": "Приморск", "NAME_EN": "Primorsk", "NAME_RU": "Приморск", "PLACE": "town", "A_CNTR": "RU", "A_RGN": "Ленинградская область", "A_DSTRCT": "Выборгский район", "A_PSTCD": null, "POPULATION": "5782" }, "geometry": { "type": "Point", "coordinates": [ 28.616637155958365, 60.36512574971303 ] } },
{ "type": "Feature", "properties": { "OSM_ID": 27081144.000000, "NAME": "Опочка", "NAME_EN": "Opochka", "NAME_RU": "Опочка", "PLACE": "town", "A_CNTR": "RU", "A_RGN": "Псковская область", "A_DSTRCT": null, "A_PSTCD": null, "POPULATION": "11545" }, "geometry": { "type": "Point", "coordinates": [ 28.656771233187492, 56.71010283234834 ] } },
{ "type": "Feature", "properties": { "OSM_ID": 257906827.000000, "NAME": "Советский", "NAME_EN": "Sovetskii", "NAME_RU": "Советский", "PLACE": "town", "A_CNTR": "RU", "A_RGN": "Ленинградская область", "A_DSTRCT": "Выборгский район", "A_PSTCD": null, "POPULATION": "7018" }, "geometry": { "type": "Point", "coordinates": [ 28.669707345319573, 60.531001403102437 ] } },
{ "type": "Feature", "properties": { "OSM_ID": 1009135181.000000, "NAME": "Выборг", "NAME_EN": "Vyborg", "NAME_RU": "Выборг", "PLACE": "town", "A_CNTR": "RU", "A_RGN": "Ленинградская область", "A_DSTRCT": "Выборгский район", "A_PSTCD": null, "POPULATION": "79962" }, "geometry": { "type": "Point", "coordinates": [ 28.744011827309219, 60.707680853340307 ] } },
{ "type": "Feature", "properties": { "OSM_ID": 34391623.000000, "NAME": "Светогорск", "NAME_EN": "Svetogorsk", "NAME_RU": "Светогорск", "PLACE": "town", "A_CNTR": "RU", "A_RGN": "Ленинградская область", "A_DSTRCT": "Выборгский район", "A_PSTCD": "188990", "POPULATION": "15896" }, "geometry": { "type": "Point", "coordinates": [ 28.870061042792063, 61.109722774105279 ] } },
{ "type": "Feature", "properties": { "OSM_ID": 273195256.000000, "NAME": "Идрица", "NAME_EN": "Idritsa", "NAME_RU": "Идрица", "PLACE": "town", "A_CNTR": "RU", "A_RGN": "Псковская область", "A_DSTRCT": "Себежский район", "A_PSTCD": null, "POPULATION": "4982" }, "geometry": { "type": "Point", "coordinates": [ 28.896906830185014, 56.330546735134504 ] } },
{ "type": "Feature", "properties": { "OSM_ID": 738074805.000000, "NAME": "Пушкинские Горы", "NAME_EN": null, "NAME_RU": "Пушкинские Горы", "PLACE": "town", "A_CNTR": "RU", "A_RGN": "Псковская область", "A_DSTRCT": null, "A_PSTCD": null, "POPULATION": "5207" }, "geometry": { "type": "Point", "coordinates": [ 28.917476272839885, 57.016857257595547 ] } },
{ "type": "Feature", "properties": { "OSM_ID": 702747472.000000, "NAME": "Каменка", "NAME_EN": null, "NAME_RU": "Каменка", "PLACE": "town", "A_CNTR": "RU", "A_RGN": "Ленинградская область", "A_DSTRCT": "Выборгский район", "A_PSTCD": null, "POPULATION": "8212" }, "geometry": { "type": "Point", "coordinates": [ 29.085744042454838, 60.444919926352867 ] } },
{ "type": "Feature", "properties": { "OSM_ID": 206092285.000000, "NAME": "Сосновый Бор", "NAME_EN": "Sosnoviy Bor", "NAME_RU": "Сосновый Бор", "PLACE": "town", "A_CNTR": "RU", "A_RGN": "Ленинградская область", "A_DSTRCT": "Сосновоборский городской округ", "A_PSTCD": "188540", "POPULATION": "67079" }, "geometry": { "type": "Point", "coordinates": [ 29.095592381089887, 59.889068480409662 ] } },
{ "type": "Feature", "properties": { "OSM_ID": 285580257.000000, "NAME": "Струги Красные", "NAME_EN": null, "NAME_RU": null, "PLACE": "town", "A_CNTR": "RU", "A_RGN": "Псковская область", "A_DSTRCT": "Струго-Красненский район", "A_PSTCD": null, "POPULATION": "8485" }, "geometry": { "type": "Point", "coordinates": [ 29.111534239932755, 58.268398514010961 ] } },
{ "type": "Feature", "properties": { "OSM_ID": 34391624.000000, "NAME": "Каменногорск", "NAME_EN": "Kamennogorsk", "NAME_RU": "Каменногорск", "PLACE": "town", "A_CNTR": "RU", "A_RGN": "Ленинградская область", "A_DSTRCT": "Выборгский район", "A_PSTCD": "188950", "POPULATION": "6761" }, "geometry": { "type": "Point", "coordinates": [ 29.130286881246711, 60.951077123657505 ] } },
{ "type": "Feature", "properties": { "OSM_ID": 342402547.000000, "NAME": "Новоржев", "NAME_EN": "Novorznev", "NAME_RU": "Новоржев", "PLACE": "town", "A_CNTR": "RU", "A_RGN": "Псковская область", "A_DSTRCT": "Новоржевский район", "A_PSTCD": null, "POPULATION": "3678" }, "geometry": { "type": "Point", "coordinates": [ 29.333393752010689, 57.029739457477767 ] } },
{ "type": "Feature", "properties": { "OSM_ID": 301304385.000000, "NAME": "Плюсса", "NAME_EN": "Plyussa", "NAME_RU": "Плюсса", "PLACE": "town", "A_CNTR": "RU", "A_RGN": "Псковская область", "A_DSTRCT": "Плюсский район", "A_PSTCD": null, "POPULATION": "3437" }, "geometry": { "type": "Point", "coordinates": [ 29.368306991728353, 58.421301971429486 ] } },
{ "type": "Feature", "properties": { "OSM_ID": 342263289.000000, "NAME": "Пустошка", "NAME_EN": "Pustoshka", "NAME_RU": "Пустошка", "PLACE": "town", "A_CNTR": "RU", "A_RGN": "Псковская область", "A_DSTRCT": null, "A_PSTCD": null, "POPULATION": "4603" }, "geometry": { "type": "Point", "coordinates": [ 29.369451892493519, 56.331020098084167 ] } },
{ "type": "Feature", "properties": { "OSM_ID": 248268280.000000, "NAME": "Лебяжье", "NAME_EN": "Lebyazhye", "NAME_RU": "Лебяжье", "PLACE": "town", "A_CNTR": "RU", "A_RGN": "Ленинградская область", "A_DSTRCT": "Ломоносовский район", "A_PSTCD": null, "POPULATION": "4590" }, "geometry": { "type": "Point", "coordinates": [ 29.416610078899065, 59.960038903775356 ] } },
{ "type": "Feature", "properties": { "OSM_ID": 273215574.000000, "NAME": "Волосово", "NAME_EN": "Volosovo", "NAME_RU": "Волосово", "PLACE": "town", "A_CNTR": "RU", "A_RGN": "Ленинградская область", "A_DSTRCT": "Волосовский район", "A_PSTCD": "188410", "POPULATION": "12179" }, "geometry": { "type": "Point", "coordinates": [ 29.483788694978713, 59.443791689667684 ] } },
{ "type": "Feature", "properties": { "OSM_ID": 76752092.000000, "NAME": "Порхов", "NAME_EN": "Porkhov", "NAME_RU": "Порхов", "PLACE": "town", "A_CNTR": "RU", "A_RGN": "Псковская область", "A_DSTRCT": "Порховский район", "A_PSTCD": null, "POPULATION": "10572" }, "geometry": { "type": "Point", "coordinates": [ 29.551800783868845, 57.76373047022286 ] } },
{ "type": "Feature", "properties": { "OSM_ID": 83308922.000000, "NAME": "Рощино", "NAME_EN": "Roshchino", "NAME_RU": "Рощино", "PLACE": "town", "A_CNTR": "RU", "A_RGN": "Ленинградская область", "A_DSTRCT": "Выборгский район", "A_PSTCD": null, "POPULATION": "14205" }, "geometry": { "type": "Point", "coordinates": [ 29.605068836935502, 60.255111316856599 ] } },
{ "type": "Feature", "properties": { "OSM_ID": 60477767.000000, "NAME": "Зеленогорск", "NAME_EN": "Zelenogorsk", "NAME_RU": "Зеленогорск", "PLACE": "town", "A_CNTR": "RU", "A_RGN": "Санкт-Петербург", "A_DSTRCT": "Курортный район", "A_PSTCD": null, "POPULATION": "14524" }, "geometry": { "type": "Point", "coordinates": [ 29.707081211700334, 60.195534833963151 ] } },
{ "type": "Feature", "properties": { "OSM_ID": 244217868.000000, "NAME": "Кронштадт", "NAME_EN": "Kronstadt", "NAME_RU": "Кронштадт", "PLACE": "town", "A_CNTR": "RU", "A_RGN": "Санкт-Петербург", "A_DSTRCT": "Кронштадтский район", "A_PSTCD": null, "POPULATION": "43687" }, "geometry": { "type": "Point", "coordinates": [ 29.774573041432401, 59.989303673860633 ] } },
{ "type": "Feature", "properties": { "OSM_ID": 411691832.000000, "NAME": "Ломоносов", "NAME_EN": "Lomonosov", "NAME_RU": "Ломоносов", "PLACE": "town", "A_CNTR": "RU", "A_RGN": "Санкт-Петербург", "A_DSTRCT": "Петродворцовый район", "A_PSTCD": null, "POPULATION": "42878" }, "geometry": { "type": "Point", "coordinates": [ 29.776113131409193, 59.908775964945235 ] } },
{ "type": "Feature", "properties": { "OSM_ID": 27023177.000000, "NAME": "Луга", "NAME_EN": "Luga", "NAME_RU": "Луга", "PLACE": "town", "A_CNTR": "RU", "A_RGN": "Ленинградская область", "A_DSTRCT": "Лужский район", "A_PSTCD": null, "POPULATION": "36774" }, "geometry": { "type": "Point", "coordinates": [ 29.847520831377775, 58.734191453933747 ] } },
{ "type": "Feature", "properties": { "OSM_ID": 249841082.000000, "NAME": "Кузнечное", "NAME_EN": "Kuznechnoye", "NAME_RU": "Кузнечное", "PLACE": "town", "A_CNTR": "RU", "A_RGN": "Ленинградская область", "A_DSTRCT": "Приозерский район", "A_PSTCD": "188751", "POPULATION": "4403" }, "geometry": { "type": "Point", "coordinates": [ 29.873001826031491, 61.119635597777211 ] } },
{ "type": "Feature", "properties": { "OSM_ID": 173863860.000000, "NAME": "Бежаницы", "NAME_EN": "Bezhanitsy", "NAME_RU": "Бежаницы", "PLACE": "town", "A_CNTR": "RU", "A_RGN": "Псковская область", "A_DSTRCT": "Бежаницкий район", "A_PSTCD": null, "POPULATION": "4328" }, "geometry": { "type": "Point", "coordinates": [ 29.884441273133202, 56.972318016011869 ] } },
{ "type": "Feature", "properties": { "OSM_ID": 83087798.000000, "NAME": "Петергоф", "NAME_EN": "Petergof", "NAME_RU": "Петергоф", "PLACE": "town", "A_CNTR": "RU", "A_RGN": "Санкт-Петербург", "A_DSTRCT": "Петродворцовый район", "A_PSTCD": null, "POPULATION": "75267" }, "geometry": { "type": "Point", "coordinates": [ 29.911954232006384, 59.88030405342127 ] } },
{ "type": "Feature", "properties": { "OSM_ID": 26163795.000000, "NAME": "Невель", "NAME_EN": "Nevel", "NAME_RU": "Невель", "PLACE": "town", "A_CNTR": "RU", "A_RGN": "Псковская область", "A_DSTRCT": "Невельский район", "A_PSTCD": null, "POPULATION": "16272" }, "geometry": { "type": "Point", "coordinates": [ 29.91722455147686, 56.015855182103856 ] } },
{ "type": "Feature", "properties": { "OSM_ID": 884345171.000000, "NAME": "Дедовичи", "NAME_EN": "Dedovichi", "NAME_RU": "Дедовичи", "PLACE": "town", "A_CNTR": "RU", "A_RGN": "Псковская область", "A_DSTRCT": "Дедовичский район", "A_PSTCD": null, "POPULATION": "8747" }, "geometry": { "type": "Point", "coordinates": [ 29.945206494465953, 57.549642816930536 ] } },
{ "type": "Feature", "properties": { "OSM_ID": 235967510.000000, "NAME": "Сестрорецк", "NAME_EN": "Sestroretsk", "NAME_RU": "Сестрорецк", "PLACE": "town", "A_CNTR": "RU", "A_RGN": "Санкт-Петербург", "A_DSTRCT": "Курортный район", "A_PSTCD": "197706", "POPULATION": "38812" }, "geometry": { "type": "Point", "coordinates": [ 29.959673486797129, 60.096567139651135 ] } },
{ "type": "Feature", "properties": { "OSM_ID": 2085977899.000000, "NAME": "Дно", "NAME_EN": null, "NAME_RU": null, "PLACE": "town", "A_CNTR": null, "A_RGN": "Псковская область", "A_DSTRCT": null, "A_PSTCD": null, "POPULATION": "8800" }, "geometry": { "type": "Point", "coordinates": [ 29.966737277393563, 57.824998229533811 ] } },
{ "type": "Feature", "properties": { "OSM_ID": 596163169.000000, "NAME": "Стрельна", "NAME_EN": "Strelna", "NAME_RU": "Стрельна", "PLACE": "town", "A_CNTR": "RU", "A_RGN": "Санкт-Петербург", "A_DSTRCT": "Петродворцовый район", "A_PSTCD": null, "POPULATION": "13350" }, "geometry": { "type": "Point", "coordinates": [ 30.058136848816883, 59.851089636740632 ] } },
{ "type": "Feature", "properties": { "OSM_ID": 270470354.000000, "NAME": "Сиверский", "NAME_EN": "Siversky", "NAME_RU": "Сиверский", "PLACE": "town", "A_CNTR": "RU", "A_RGN": "Ленинградская область", "A_DSTRCT": "Гатчинский район", "A_PSTCD": null, "POPULATION": "12216" }, "geometry": { "type": "Point", "coordinates": [ 30.067944407284955, 59.353592637465496 ] } },
{ "type": "Feature", "properties": { "OSM_ID": 252425945.000000, "NAME": "Красное Село", "NAME_EN": "Krasnoye Selo", "NAME_RU": "Красное Село", "PLACE": "town", "A_CNTR": "RU", "A_RGN": "Санкт-Петербург", "A_DSTRCT": "Красносельский район", "A_PSTCD": null, "POPULATION": "50251" }, "geometry": { "type": "Point", "coordinates": [ 30.085849018204062, 59.732377590108634 ] } },
{ "type": "Feature", "properties": { "OSM_ID": 82545393.000000, "NAME": "Приозерск", "NAME_EN": "Priozersk", "NAME_RU": "Приозерск", "PLACE": "town", "A_CNTR": "RU", "A_RGN": "Ленинградская область", "A_DSTRCT": "Приозерский район", "A_PSTCD": null, "POPULATION": "18890" }, "geometry": { "type": "Point", "coordinates": [ 30.124756200412826, 61.036995728377541 ] } },
{ "type": "Feature", "properties": { "OSM_ID": 27025179.000000, "NAME": "Гатчина", "NAME_EN": "Gatchina", "NAME_RU": "Гатчина", "PLACE": "town", "A_CNTR": "RU", "A_RGN": "Ленинградская область", "A_DSTRCT": "Гатчинский район", "A_PSTCD": "188309", "POPULATION": "95135" }, "geometry": { "type": "Point", "coordinates": [ 30.130413895682086, 59.569081359098824 ] } },
{ "type": "Feature", "properties": { "OSM_ID": 173846663.000000, "NAME": "Локня", "NAME_EN": null, "NAME_RU": null, "PLACE": "town", "A_CNTR": "RU", "A_RGN": "Псковская область", "A_DSTRCT": "Локнянский район", "A_PSTCD": "182900", "POPULATION": "3877" }, "geometry": { "type": "Point", "coordinates": [ 30.144382175893664, 56.823216201639454 ] } },
{ "type": "Feature", "properties": { "OSM_ID": 356482952.000000, "NAME": "Новосокольники", "NAME_EN": "Novosokolniki", "NAME_RU": "Новосокольники", "PLACE": "town", "A_CNTR": "RU", "A_RGN": "Псковская область", "A_DSTRCT": "Новосокольнический район", "A_PSTCD": null, "POPULATION": "8089" }, "geometry": { "type": "Point", "coordinates": [ 30.152826495026382, 56.345812771554655 ] } },
{ "type": "Feature", "properties": { "OSM_ID": 1376026523.000000, "NAME": "Песочный", "NAME_EN": "Pesochny", "NAME_RU": "Песочный", "PLACE": "town", "A_CNTR": null, "A_RGN": "Санкт-Петербург", "A_DSTRCT": "Курортный район", "A_PSTCD": null, "POPULATION": "8522" }, "geometry": { "type": "Point", "coordinates": [ 30.163669843041895, 60.11963796497038 ] } },
{ "type": "Feature", "properties": { "OSM_ID": 1839536171.000000, "NAME": "Лахденпохья", "NAME_EN": "Lakhdenpokhya", "NAME_RU": "Лахденпохья", "PLACE": "town", "A_CNTR": "RU", "A_RGN": "Карелия", "A_DSTRCT": null, "A_PSTCD": null, "POPULATION": "7539" }, "geometry": { "type": "Point", "coordinates": [ 30.203798274373746, 61.516398224398152 ] } },
{ "type": "Feature", "properties": { "OSM_ID": 125891414.000000, "NAME": "Сертолово", "NAME_EN": "Sertolovo", "NAME_RU": "Сертолово", "PLACE": "town", "A_CNTR": "RU", "A_RGN": "Ленинградская область", "A_DSTRCT": "Всеволожский район", "A_PSTCD": "188650", "POPULATION": "50447" }, "geometry": { "type": "Point", "coordinates": [ 30.20770869447167, 60.142164449628346 ] } },
{ "type": "Feature", "properties": { "OSM_ID": 272845466.000000, "NAME": "Никель", "NAME_EN": "Nikel", "NAME_RU": "Никель", "PLACE": "town", "A_CNTR": "RU", "A_RGN": "Мурманская область", "A_DSTRCT": "Печенгский район", "A_PSTCD": null, "POPULATION": "15000" }, "geometry": { "type": "Point", "coordinates": [ 30.211338221785233, 69.404783194100332 ] } },
{ "type": "Feature", "properties": { "OSM_ID": 83312335.000000, "NAME": "Сосново", "NAME_EN": "Sosnovo", "NAME_RU": "Сосново", "PLACE": "town", "A_CNTR": "RU", "A_RGN": "Ленинградская область", "A_DSTRCT": "Приозерский район", "A_PSTCD": "188730, 188731", "POPULATION": "7209" }, "geometry": { "type": "Point", "coordinates": [ 30.253963184545473, 60.555561452219642 ] } },
{ "type": "Feature", "properties": { "OSM_ID": 243067926.000000, "NAME": "Парголово", "NAME_EN": "Pargolovo", "NAME_RU": "Парголово", "PLACE": "town", "A_CNTR": "RU", "A_RGN": "Санкт-Петербург", "A_DSTRCT": "Выборгский район", "A_PSTCD": null, "POPULATION": "12225" }, "geometry": { "type": "Point", "coordinates": [ 30.279467976189757, 60.082160292453331 ] } },
{ "type": "Feature", "properties": { "OSM_ID": 243067858.000000, "NAME": "Агалатово", "NAME_EN": null, "NAME_RU": "Агалатово", "PLACE": "town", "A_CNTR": "RU", "A_RGN": "Ленинградская область", "A_DSTRCT": "Всеволожский район", "A_PSTCD": "188653", "POPULATION": "5155" }, "geometry": { "type": "Point", "coordinates": [ 30.293029034917858, 60.217153389520988 ] } },
{ "type": "Feature", "properties": { "OSM_ID": 282671987.000000, "NAME": "Сольцы", "NAME_EN": null, "NAME_RU": "Сольцы", "PLACE": "town", "A_CNTR": null, "A_RGN": "Новгородская область", "A_DSTRCT": "Солецкий район", "A_PSTCD": null, "POPULATION": "10317" }, "geometry": { "type": "Point", "coordinates": [ 30.309420009602668, 58.118667393784129 ] } },
{ "type": "Feature", "properties": { "OSM_ID": 27490597.000000, "NAME": "Санкт-Петербург", "NAME_EN": "Saint Petersburg", "NAME_RU": "Санкт-Петербург", "PLACE": "city", "A_CNTR": "RU", "A_RGN": "Санкт-Петербург", "A_DSTRCT": null, "A_PSTCD": null, "POPULATION": "5131942" }, "geometry": { "type": "Point", "coordinates": [ 30.315261928179904, 59.937822905781097 ] } },
{ "type": "Feature", "properties": { "OSM_ID": 273215575.000000, "NAME": "Вырица", "NAME_EN": "Vyritsa", "NAME_RU": "Вырица", "PLACE": "town", "A_CNTR": "RU", "A_RGN": "Ленинградская область", "A_DSTRCT": "Гатчинский район", "A_PSTCD": "188380", "POPULATION": "12384" }, "geometry": { "type": "Point", "coordinates": [ 30.349580273419011, 59.411114726063268 ] } },
{ "type": "Feature", "properties": { "OSM_ID": 1827519802.000000, "NAME": "Шушары", "NAME_EN": "Shushary", "NAME_RU": "Шушары", "PLACE": "town", "A_CNTR": null, "A_RGN": "Санкт-Петербург", "A_DSTRCT": "Пушкинский район", "A_PSTCD": null, "POPULATION": "43430" }, "geometry": { "type": "Point", "coordinates": [ 30.373680251933706, 59.805880030446176 ] } },
{ "type": "Feature", "properties": { "OSM_ID": 273215576.000000, "NAME": "Коммунар", "NAME_EN": "Kommunar", "NAME_RU": "Коммунар", "PLACE": "town", "A_CNTR": "RU", "A_RGN": "Ленинградская область", "A_DSTRCT": "Гатчинский район", "A_PSTCD": null, "POPULATION": "21260" }, "geometry": { "type": "Point", "coordinates": [ 30.391818145607491, 59.620649914551883 ] } },
{ "type": "Feature", "properties": { "OSM_ID": 211503865.000000, "NAME": "Бугры", "NAME_EN": null, "NAME_RU": null, "PLACE": "town", "A_CNTR": "RU", "A_RGN": "Ленинградская область", "A_DSTRCT": "Всеволожский район", "A_PSTCD": "188660", "POPULATION": "6154" }, "geometry": { "type": "Point", "coordinates": [ 30.39470906699054, 60.067017322225041 ] } },
{ "type": "Feature", "properties": { "OSM_ID": 27024680.000000, "NAME": "Пушкин", "NAME_EN": "Pushkin", "NAME_RU": "Пушкин", "PLACE": "city", "A_CNTR": "RU", "A_RGN": "Санкт-Петербург", "A_DSTRCT": "Пушкинский район", "A_PSTCD": null, "POPULATION": "100753" }, "geometry": { "type": "Point", "coordinates": [ 30.415625767407693, 59.720711275271206 ] } },
{ "type": "Feature", "properties": { "OSM_ID": 584287948.000000, "NAME": "Павловск", "NAME_EN": "Pavlovsk", "NAME_RU": "Павловск", "PLACE": "town", "A_CNTR": "RU", "A_RGN": "Санкт-Петербург", "A_DSTRCT": "Пушкинский район", "A_PSTCD": null, "POPULATION": "16495" }, "geometry": { "type": "Point", "coordinates": [ 30.433158863535972, 59.683307245083505 ] } },
{ "type": "Feature", "properties": { "OSM_ID": 249759120.000000, "NAME": "Мурино", "NAME_EN": null, "NAME_RU": null, "PLACE": "town", "A_CNTR": "RU", "A_RGN": "Ленинградская область", "A_DSTRCT": "Всеволожский район", "A_PSTCD": "188662", "POPULATION": "7023" }, "geometry": { "type": "Point", "coordinates": [ 30.445741497971508, 60.044525208233395 ] } },
{ "type": "Feature", "properties": { "OSM_ID": 304025149.000000, "NAME": "Ковдор", "NAME_EN": "Kovdor", "NAME_RU": "Ковдор", "PLACE": "town", "A_CNTR": "RU", "A_RGN": "Мурманская область", "A_DSTRCT": "Ковдорский район", "A_PSTCD": null, "POPULATION": "19100" }, "geometry": { "type": "Point", "coordinates": [ 30.474007959882712, 67.561587324557621 ] } },
{ "type": "Feature", "properties": { "OSM_ID": 376938459.000000, "NAME": "Новое Девяткино", "NAME_EN": null, "NAME_RU": null, "PLACE": "town", "A_CNTR": "RU", "A_RGN": "Ленинградская область", "A_DSTRCT": "Всеволожский район", "A_PSTCD": "188661", "POPULATION": "13120" }, "geometry": { "type": "Point", "coordinates": [ 30.475327984963741, 60.056482005911263 ] } },
{ "type": "Feature", "properties": { "OSM_ID": 211504478.000000, "NAME": "Кузьмоловский", "NAME_EN": "Kuzmolovskiy", "NAME_RU": "Кузьмоловский", "PLACE": "town", "A_CNTR": "RU", "A_RGN": "Ленинградская область", "A_DSTRCT": "Всеволожский район", "A_PSTCD": "188663", "POPULATION": "10081" }, "geometry": { "type": "Point", "coordinates": [ 30.492415389938191, 60.108218060304438 ] } },
{ "type": "Feature", "properties": { "OSM_ID": 243480022.000000, "NAME": "Токсово", "NAME_EN": "Toksovo", "NAME_RU": "Токсово", "PLACE": "town", "A_CNTR": "RU", "A_RGN": "Ленинградская область", "A_DSTRCT": "Всеволожский район", "A_PSTCD": "188664", "POPULATION": "5849" }, "geometry": { "type": "Point", "coordinates": [ 30.52516179240418, 60.157621591252045 ] } },
{ "type": "Feature", "properties": { "OSM_ID": 27072632.000000, "NAME": "Великие Луки", "NAME_EN": "Velikiye Luki", "NAME_RU": "Великие Луки", "PLACE": "city", "A_CNTR": "RU", "A_RGN": "Псковская область", "A_DSTRCT": null, "A_PSTCD": null, "POPULATION": "96514" }, "geometry": { "type": "Point", "coordinates": [ 30.527809701205019, 56.340788388786017 ] } },
{ "type": "Feature", "properties": { "OSM_ID": 1262068218.000000, "NAME": "Форносово", "NAME_EN": null, "NAME_RU": null, "PLACE": "town", "A_CNTR": "RU", "A_RGN": "Ленинградская область", "A_DSTRCT": "Тосненский район", "A_PSTCD": null, "POPULATION": "6449" }, "geometry": { "type": "Point", "coordinates": [ 30.548853789381671, 59.568257117245501 ] } },
{ "type": "Feature", "properties": { "OSM_ID": 431206762.000000, "NAME": "Металлострой", "NAME_EN": "Metallostroy", "NAME_RU": "Металлострой", "PLACE": "town", "A_CNTR": "RU", "A_RGN": "Санкт-Петербург", "A_DSTRCT": "Колпинский район", "A_PSTCD": null, "POPULATION": "27925" }, "geometry": { "type": "Point", "coordinates": [ 30.574993545319153, 59.807515588571242 ] } },
{ "type": "Feature", "properties": { "OSM_ID": 2078883019.000000, "NAME": "Костомукша", "NAME_EN": "Kostomuksha", "NAME_RU": "Костомукша", "PLACE": "town", "A_CNTR": null, "A_RGN": null, "A_DSTRCT": null, "A_PSTCD": null, "POPULATION": "29036" }, "geometry": { "type": "Point", "coordinates": [ 30.59680017132704, 64.585804464764507 ] } },
{ "type": "Feature", "properties": { "OSM_ID": 60081897.000000, "NAME": "Колпино", "NAME_EN": "Kolpino", "NAME_RU": "Колпино", "PLACE": "city", "A_CNTR": "RU", "A_RGN": "Санкт-Петербург", "A_DSTRCT": "Колпинский район", "A_PSTCD": null, "POPULATION": "144412" }, "geometry": { "type": "Point", "coordinates": [ 30.604366677291164, 59.746897352196171 ] } },
{ "type": "Feature", "properties": { "OSM_ID": 1632829627.000000, "NAME": "посёлок Тельмана", "NAME_EN": null, "NAME_RU": null, "PLACE": "town", "A_CNTR": "RU", "A_RGN": "Ленинградская область", "A_DSTRCT": "Тосненский район", "A_PSTCD": "187032", "POPULATION": "14047" }, "geometry": { "type": "Point", "coordinates": [ 30.612010068131234, 59.724952959219607 ] } },
{ "type": "Feature", "properties": { "OSM_ID": 964974964.000000, "NAME": "Старая", "NAME_EN": "Staraya", "NAME_RU": "Старая", "PLACE": "town", "A_CNTR": "RU", "A_RGN": "Ленинградская область", "A_DSTRCT": "Всеволожский район", "A_PSTCD": "188680", "POPULATION": "8868" }, "geometry": { "type": "Point", "coordinates": [ 30.629609292413502, 59.927749730093787 ] } },
{ "type": "Feature", "properties": { "OSM_ID": 356483118.000000, "NAME": "Понтонный", "NAME_EN": "Pontonnyy", "NAME_RU": "Понтонный", "PLACE": "town", "A_CNTR": "RU", "A_RGN": "Санкт-Петербург", "A_DSTRCT": "Колпинский район", "A_PSTCD": null, "POPULATION": "8734" }, "geometry": { "type": "Point", "coordinates": [ 30.630842510426184, 59.781382746672399 ] } },
{ "type": "Feature", "properties": { "OSM_ID": 243068681.000000, "NAME": "Всеволожск", "NAME_EN": "Vsevolozhsk", "NAME_RU": "Всеволожск", "PLACE": "town", "A_CNTR": "RU", "A_RGN": "Ленинградская область", "A_DSTRCT": "Всеволожский район", "A_PSTCD": null, "POPULATION": "64368" }, "geometry": { "type": "Point", "coordinates": [ 30.645929158995678, 60.022462262125941 ] } },
{ "type": "Feature", "properties": { "OSM_ID": 914758715.000000, "NAME": "посёлок имени Свердлова", "NAME_EN": "Posyolok Imeni Sverdlova", "NAME_RU": "посёлок имени Свердлова", "PLACE": "town", "A_CNTR": "RU", "A_RGN": "Ленинградская область", "A_DSTRCT": "Всеволожский район", "A_PSTCD": "188683", "POPULATION": "9936" }, "geometry": { "type": "Point", "coordinates": [ 30.655703583687096, 59.794855258594367 ] } },
{ "type": "Feature", "properties": { "OSM_ID": 1858201567.000000, "NAME": "Сортавала", "NAME_EN": "Sortavala", "NAME_RU": "Сортавала", "PLACE": "town", "A_CNTR": "RU", "A_RGN": "Карелия", "A_DSTRCT": "Сортавальский район", "A_PSTCD": null, "POPULATION": "18857" }, "geometry": { "type": "Point", "coordinates": [ 30.691117416541708, 61.701212876458392 ] } },
{ "type": "Feature", "properties": { "OSM_ID": 411447188.000000, "NAME": "Шимск", "NAME_EN": null, "NAME_RU": "Шимск", "PLACE": "town", "A_CNTR": null, "A_RGN": "Новгородская область", "A_DSTRCT": "Шимский район", "A_PSTCD": null, "POPULATION": "3452" }, "geometry": { "type": "Point", "coordinates": [ 30.724690231052932, 58.210142695392655 ] } },
{ "type": "Feature", "properties": { "OSM_ID": 356482498.000000, "NAME": "Ульяновка", "NAME_EN": "Ulyanovka", "NAME_RU": "Ульяновка", "PLACE": "town", "A_CNTR": "RU", "A_RGN": "Ленинградская область", "A_DSTRCT": "Тосненский район", "A_PSTCD": null, "POPULATION": "12565" }, "geometry": { "type": "Point", "coordinates": [ 30.765837901744021, 59.639010278758654 ] } },
{ "type": "Feature", "properties": { "OSM_ID": 243367757.000000, "NAME": "Никольское", "NAME_EN": "Nikolskoye", "NAME_RU": "Никольское", "PLACE": "town", "A_CNTR": "RU", "A_RGN": "Ленинградская область", "A_DSTRCT": "Тосненский район", "A_PSTCD": null, "POPULATION": "20485" }, "geometry": { "type": "Point", "coordinates": [ 30.785989491681725, 59.701934921083279 ] } },
{ "type": "Feature", "properties": { "OSM_ID": 893095176.000000, "NAME": "Отрадное", "NAME_EN": "Otradnoye", "NAME_RU": "Отрадное", "PLACE": "town", "A_CNTR": "RU", "A_RGN": "Ленинградская область", "A_DSTRCT": "Кировский район", "A_PSTCD": null, "POPULATION": "25225" }, "geometry": { "type": "Point", "coordinates": [ 30.801906943077647, 59.771117520889668 ] } },
{ "type": "Feature", "properties": { "OSM_ID": 303973327.000000, "NAME": "Заполярный", "NAME_EN": "Zapolyarnyy", "NAME_RU": "Заполярный", "PLACE": "town", "A_CNTR": "RU", "A_RGN": "Мурманская область", "A_DSTRCT": "Печенгский район", "A_PSTCD": "184430", "POPULATION": "15835" }, "geometry": { "type": "Point", "coordinates": [ 30.819822195366498, 69.424804501645269 ] } },
{ "type": "Feature", "properties": { "OSM_ID": 60079145.000000, "NAME": "Тосно", "NAME_EN": "Tosno", "NAME_RU": "Тосно", "PLACE": "town", "A_CNTR": "RU", "A_RGN": "Ленинградская область", "A_DSTRCT": "Тосненский район", "A_PSTCD": "187000", "POPULATION": "39320" }, "geometry": { "type": "Point", "coordinates": [ 30.87685586145933, 59.539885801292129 ] } },
{ "type": "Feature", "properties": { "OSM_ID": 558275917.000000, "NAME": "Дубровка", "NAME_EN": "Dubrovka", "NAME_RU": "Дубровка", "PLACE": "town", "A_CNTR": "RU", "A_RGN": "Ленинградская область", "A_DSTRCT": "Всеволожский район", "A_PSTCD": "188684", "POPULATION": "7099" }, "geometry": { "type": "Point", "coordinates": [ 30.930178945437291, 59.846150755813881 ] } },
{ "type": "Feature", "properties": { "OSM_ID": 369312472.000000, "NAME": "Кунья", "NAME_EN": null, "NAME_RU": null, "PLACE": "town", "A_CNTR": "RU", "A_RGN": "Псковская область", "A_DSTRCT": "Куньинский район", "A_PSTCD": null, "POPULATION": "3110" }, "geometry": { "type": "Point", "coordinates": [ 30.982639839745449, 56.2933456260577 ] } },
{ "type": "Feature", "properties": { "OSM_ID": 246678899.000000, "NAME": "Кировск", "NAME_EN": "Kirovsk", "NAME_RU": "Кировск", "PLACE": "town", "A_CNTR": "RU", "A_RGN": "Ленинградская область", "A_DSTRCT": "Кировский район", "A_PSTCD": "187340", "POPULATION": "25409" }, "geometry": { "type": "Point", "coordinates": [ 30.985406773930364, 59.879851943835824 ] } },
{ "type": "Feature", "properties": { "OSM_ID": 373930564.000000, "NAME": "Шлиссельбург", "NAME_EN": "Shlisselburg", "NAME_RU": "Шлиссельбург", "PLACE": "town", "A_CNTR": "RU", "A_RGN": "Ленинградская область", "A_DSTRCT": "Кировский район", "A_PSTCD": "187320", "POPULATION": "14554" }, "geometry": { "type": "Point", "coordinates": [ 31.033567378032821, 59.938888057373418 ] } },
{ "type": "Feature", "properties": { "OSM_ID": 769057324.000000, "NAME": "посёлок имени Морозова", "NAME_EN": "Posyolok Imeni Morozova", "NAME_RU": "посёлок имени Морозова", "PLACE": "town", "A_CNTR": "RU", "A_RGN": "Ленинградская область", "A_DSTRCT": "Всеволожский район", "A_PSTCD": "188679", "POPULATION": "10835" }, "geometry": { "type": "Point", "coordinates": [ 31.040238340412383, 59.97238695218487 ] } },
{ "type": "Feature", "properties": { "OSM_ID": 1359419742.000000, "NAME": "Мга", "NAME_EN": "Mga", "NAME_RU": "Мга", "PLACE": "town", "A_CNTR": "RU", "A_RGN": "Ленинградская область", "A_DSTRCT": "Кировский район", "A_PSTCD": null, "POPULATION": "10324" }, "geometry": { "type": "Point", "coordinates": [ 31.061832224830944, 59.75601614985159 ] } },
{ "type": "Feature", "properties": { "OSM_ID": 393764498.000000, "NAME": "Рудня", "NAME_EN": "Rudnya", "NAME_RU": "Рудня", "PLACE": "town", "A_CNTR": "RU", "A_RGN": "Смоленская область", "A_DSTRCT": null, "A_PSTCD": null, "POPULATION": "10029" }, "geometry": { "type": "Point", "coordinates": [ 31.080378599373571, 54.944341629962302 ] } },
{ "type": "Feature", "properties": { "OSM_ID": 26898768.000000, "NAME": "Калевала", "NAME_EN": null, "NAME_RU": "Калевала", "PLACE": "town", "A_CNTR": "RU", "A_RGN": "Карелия", "A_DSTRCT": "Калевальский район", "A_PSTCD": null, "POPULATION": "4166" }, "geometry": { "type": "Point", "coordinates": [ 31.180038706834594, 65.198607258238752 ] } },
{ "type": "Feature", "properties": { "OSM_ID": 282656834.000000, "NAME": "Холм", "NAME_EN": "Kholm", "NAME_RU": "Холм", "PLACE": "town", "A_CNTR": null, "A_RGN": "Новгородская область", "A_DSTRCT": "Холмский район", "A_PSTCD": null, "POPULATION": "3829" }, "geometry": { "type": "Point", "coordinates": [ 31.182544218035112, 57.149194108113655 ] } },
{ "type": "Feature", "properties": { "OSM_ID": 173835805.000000, "NAME": "Велиж", "NAME_EN": null, "NAME_RU": null, "PLACE": "town", "A_CNTR": "RU", "A_RGN": "Смоленская область", "A_DSTRCT": "Велижский район", "A_PSTCD": "216290", "POPULATION": "7620" }, "geometry": { "type": "Point", "coordinates": [ 31.195097474968815, 55.603178928877938 ] } },
{ "type": "Feature", "properties": { "OSM_ID": 2259675178.000000, "NAME": "Панковка", "NAME_EN": null, "NAME_RU": "Панковка", "PLACE": "town", "A_CNTR": "RU", "A_RGN": "Новгородская область", "A_DSTRCT": "Новгородский район", "A_PSTCD": null, "POPULATION": "10299" }, "geometry": { "type": "Point", "coordinates": [ 31.202428094988544, 58.498484534231267 ] } },
{ "type": "Feature", "properties": { "OSM_ID": 60696063.000000, "NAME": "Любань", "NAME_EN": "Lyuban", "NAME_RU": "Любань", "PLACE": "town", "A_CNTR": "RU", "A_RGN": "Ленинградская область", "A_DSTRCT": "Тосненский район", "A_PSTCD": "187050", "POPULATION": "4594" }, "geometry": { "type": "Point", "coordinates": [ 31.24407204150474, 59.34477578264535 ] } },
{ "type": "Feature", "properties": { "OSM_ID": 27017589.000000, "NAME": "Великий Новгород", "NAME_EN": "Veliky Novgorod", "NAME_RU": "Великий Новгород", "PLACE": "city", "A_CNTR": "RU", "A_RGN": "Новгородская область", "A_DSTRCT": null, "A_PSTCD": null, "POPULATION": "216200" }, "geometry": { "type": "Point", "coordinates": [ 31.27515275501943, 58.519587499040192 ] } },
{ "type": "Feature", "properties": { "OSM_ID": 1190924499.000000, "NAME": "Приладожский", "NAME_EN": null, "NAME_RU": "Приладожский", "PLACE": "town", "A_CNTR": "RU", "A_RGN": "Ленинградская область", "A_DSTRCT": "Кировский район", "A_PSTCD": null, "POPULATION": "5745" }, "geometry": { "type": "Point", "coordinates": [ 31.32482092139459, 59.873480858919187 ] } },
{ "type": "Feature", "properties": { "OSM_ID": 2261998876.000000, "NAME": "Старая Русса", "NAME_EN": null, "NAME_RU": "Старая Русса", "PLACE": "town", "A_CNTR": "RU", "A_RGN": "Новгородская область", "A_DSTRCT": "Старорусский район", "A_PSTCD": null, "POPULATION": "30901" }, "geometry": { "type": "Point", "coordinates": [ 31.362877434640598, 57.988805038393153 ] } },
{ "type": "Feature", "properties": { "OSM_ID": 1493597616.000000, "NAME": "Голынки", "NAME_EN": "Golynki", "NAME_RU": "Голынки", "PLACE": "town", "A_CNTR": "RU", "A_RGN": "Смоленская область", "A_DSTRCT": "Руднянский район", "A_PSTCD": "216740", "POPULATION": "3573" }, "geometry": { "type": "Point", "coordinates": [ 31.375262080427099, 54.865057467932296 ] } },
{ "type": "Feature", "properties": { "OSM_ID": 312992742.000000, "NAME": "Красный", "NAME_EN": "Krasny", "NAME_RU": "Красный", "PLACE": "town", "A_CNTR": "RU", "A_RGN": "Смоленская область", "A_DSTRCT": null, "A_PSTCD": null, "POPULATION": "4515" }, "geometry": { "type": "Point", "coordinates": [ 31.439305136973356, 54.567854887743266 ] } },
{ "type": "Feature", "properties": { "OSM_ID": 309965794.000000, "NAME": "Питкяранта", "NAME_EN": "Pitkyaranta", "NAME_RU": "Питкяранта", "PLACE": "town", "A_CNTR": "RU", "A_RGN": "Карелия", "A_DSTRCT": "Питкярантский район", "A_PSTCD": null, "POPULATION": "10945" }, "geometry": { "type": "Point", "coordinates": [ 31.474276084064243, 61.570252764343159 ] } },
{ "type": "Feature", "properties": { "OSM_ID": 173833660.000000, "NAME": "Демидов", "NAME_EN": null, "NAME_RU": null, "PLACE": "town", "A_CNTR": "RU", "A_RGN": "Смоленская область", "A_DSTRCT": "Демидовский район", "A_PSTCD": "216240", "POPULATION": "7782" }, "geometry": { "type": "Point", "coordinates": [ 31.517685495976682, 55.262798821624031 ] } },
{ "type": "Feature", "properties": { "OSM_ID": 300377090.000000, "NAME": "Назия", "NAME_EN": null, "NAME_RU": null, "PLACE": "town", "A_CNTR": "RU", "A_RGN": "Ленинградская область", "A_DSTRCT": "Кировский район", "A_PSTCD": "187310", "POPULATION": "4853" }, "geometry": { "type": "Point", "coordinates": [ 31.586507921152112, 59.840855072043702 ] } },
{ "type": "Feature", "properties": { "OSM_ID": 861705291.000000, "NAME": "Красная Гора", "NAME_EN": null, "NAME_RU": null, "PLACE": "town", "A_CNTR": "RU", "A_RGN": "Брянская область", "A_DSTRCT": "Красногорский район", "A_PSTCD": "243160", "POPULATION": "8200" }, "geometry": { "type": "Point", "coordinates": [ 31.60269902258619, 53.004063232256662 ] } },
{ "type": "Feature", "properties": { "OSM_ID": 356482893.000000, "NAME": "Торопец", "NAME_EN": "Toropets", "NAME_RU": "Торопец", "PLACE": "town", "A_CNTR": "RU", "A_RGN": "Тверская область", "A_DSTRCT": "Торопецкий район", "A_PSTCD": null, "POPULATION": "13000" }, "geometry": { "type": "Point", "coordinates": [ 31.640926081244377, 56.494907975525699 ] } },
{ "type": "Feature", "properties": { "OSM_ID": 369313105.000000, "NAME": "Старая Торопа", "NAME_EN": "Staraya Toropa", "NAME_RU": "Старая Торопа", "PLACE": "town", "A_CNTR": "RU", "A_RGN": "Тверская область", "A_DSTRCT": "Западнодвинский район", "A_PSTCD": null, "POPULATION": "2000" }, "geometry": { "type": "Point", "coordinates": [ 31.667591939781499, 56.278388633399871 ] } },
{ "type": "Feature", "properties": { "OSM_ID": 2291707774.000000, "NAME": "Чудово", "NAME_EN": "Chudovo", "NAME_RU": "Чудово", "PLACE": "town", "A_CNTR": "RU", "A_RGN": "Новгородская область", "A_DSTRCT": "Чудовский район", "A_PSTCD": "174210", "POPULATION": "15093" }, "geometry": { "type": "Point", "coordinates": [ 31.672573609149435, 59.123147294779557 ] } },
{ "type": "Feature", "properties": { "OSM_ID": 130201537.000000, "NAME": "Злынка", "NAME_EN": null, "NAME_RU": "Злынка", "PLACE": "town", "A_CNTR": "RU", "A_RGN": "Брянская область", "A_DSTRCT": "Злынковский район", "A_PSTCD": null, "POPULATION": "5490" }, "geometry": { "type": "Point", "coordinates": [ 31.739567499005762, 52.424571133842534 ] } },
{ "type": "Feature", "properties": { "OSM_ID": 356483039.000000, "NAME": "Монастырщина", "NAME_EN": "Monastyrshchina", "NAME_RU": "Монастырщина", "PLACE": "town", "A_CNTR": "RU", "A_RGN": "Смоленская область", "A_DSTRCT": null, "A_PSTCD": null, "POPULATION": "3900" }, "geometry": { "type": "Point", "coordinates": [ 31.83881008052548, 54.346964186763635 ] } },
{ "type": "Feature", "properties": { "OSM_ID": 130201149.000000, "NAME": "Новозыбков", "NAME_EN": "Novozybkov", "NAME_RU": "Новозыбков", "PLACE": "town", "A_CNTR": "RU", "A_RGN": "Брянская область", "A_DSTRCT": null, "A_PSTCD": "243020", "POPULATION": "40550" }, "geometry": { "type": "Point", "coordinates": [ 31.933508954307001, 52.535492991586089 ] } },
{ "type": "Feature", "properties": { "OSM_ID": 310912076.000000, "NAME": "Кириши", "NAME_EN": "Kirishi", "NAME_RU": "Кириши", "PLACE": "town", "A_CNTR": "RU", "A_RGN": "Ленинградская область", "A_DSTRCT": "Киришский район", "A_PSTCD": null, "POPULATION": "52549" }, "geometry": { "type": "Point", "coordinates": [ 32.010413225735448, 59.448777601830528 ] } },
{ "type": "Feature", "properties": { "OSM_ID": 27072633.000000, "NAME": "Смоленск", "NAME_EN": "Smolensk", "NAME_RU": "Смоленск", "PLACE": "city", "A_CNTR": "RU", "A_RGN": "Смоленская область", "A_DSTRCT": "городской округ Смоленск", "A_PSTCD": null, "POPULATION": "330961" }, "geometry": { "type": "Point", "coordinates": [ 32.054794494071814, 54.792514464281005 ] } },
{ "type": "Feature", "properties": { "OSM_ID": 356482920.000000, "NAME": "Западная Двина", "NAME_EN": "Zapadnaya Dvina", "NAME_RU": "Западная Двина", "PLACE": "town", "A_CNTR": "RU", "A_RGN": "Тверская область", "A_DSTRCT": "Западнодвинский район", "A_PSTCD": null, "POPULATION": "8800" }, "geometry": { "type": "Point", "coordinates": [ 32.085699112694996, 56.257394394216199 ] } },
{ "type": "Feature", "properties": { "OSM_ID": 417625373.000000, "NAME": "Климово", "NAME_EN": "Klimovo", "NAME_RU": "Климово", "PLACE": "town", "A_CNTR": "RU", "A_RGN": "Брянская область", "A_DSTRCT": null, "A_PSTCD": null, "POPULATION": "14100" }, "geometry": { "type": "Point", "coordinates": [ 32.196973790446911, 52.377458258851973 ] } },
{ "type": "Feature", "properties": { "OSM_ID": 2363198292.000000, "NAME": "Малая Вишера", "NAME_EN": null, "NAME_RU": null, "PLACE": "town", "A_CNTR": "RU", "A_RGN": "Новгородская область", "A_DSTRCT": "Маловишерский район", "A_PSTCD": "174260", "POPULATION": "11998" }, "geometry": { "type": "Point", "coordinates": [ 32.218461601696738, 58.842664506822636 ] } },
{ "type": "Feature", "properties": { "OSM_ID": 539409927.000000, "NAME": "Клинцы", "NAME_EN": null, "NAME_RU": "Клинцы", "PLACE": "town", "A_CNTR": "RU", "A_RGN": "Брянская область", "A_DSTRCT": null, "A_PSTCD": "243140", "POPULATION": "72000" }, "geometry": { "type": "Point", "coordinates": [ 32.239925541961576, 52.756918254400276 ] } },
{ "type": "Feature", "properties": { "OSM_ID": 356482849.000000, "NAME": "Андреаполь", "NAME_EN": "Andreapol", "NAME_RU": "Андреаполь", "PLACE": "town", "A_CNTR": "RU", "A_RGN": "Тверская область", "A_DSTRCT": "Андреапольский район", "A_PSTCD": null, "POPULATION": "8400" }, "geometry": { "type": "Point", "coordinates": [ 32.265147898395838, 56.64523109216924 ] } },
{ "type": "Feature", "properties": { "OSM_ID": 688916769.000000, "NAME": "Жарковский", "NAME_EN": "Zharkovsky", "NAME_RU": "Жарковский", "PLACE": "town", "A_CNTR": null, "A_RGN": "Тверская область", "A_DSTRCT": null, "A_PSTCD": null, "POPULATION": "4461" }, "geometry": { "type": "Point", "coordinates": [ 32.265411515151207, 55.848768163334782 ] } },
{ "type": "Feature", "properties": { "OSM_ID": 34392894.000000, "NAME": "Новая Ладога", "NAME_EN": "Novaya Ladoga", "NAME_RU": "Новая Ладога", "PLACE": "town", "A_CNTR": "RU", "A_RGN": "Ленинградская область", "A_DSTRCT": "Волховский район", "A_PSTCD": null, "POPULATION": "8800" }, "geometry": { "type": "Point", "coordinates": [ 32.314585743359459, 60.103701102675714 ] } },
{ "type": "Feature", "properties": { "OSM_ID": 34392911.000000, "NAME": "Волхов", "NAME_EN": "Volkhov", "NAME_RU": "Волхов", "PLACE": "town", "A_CNTR": "RU", "A_RGN": "Ленинградская область", "A_DSTRCT": "Волховский район", "A_PSTCD": null, "POPULATION": "46589" }, "geometry": { "type": "Point", "coordinates": [ 32.343655227038461, 59.915556938916318 ] } },
{ "type": "Feature", "properties": { "OSM_ID": 247216329.000000, "NAME": "Суоярви", "NAME_EN": "Suoyarvi", "NAME_RU": "Суоярви", "PLACE": "town", "A_CNTR": "RU", "A_RGN": "Карелия", "A_DSTRCT": "Суоярвский район", "A_PSTCD": null, "POPULATION": "9270" }, "geometry": { "type": "Point", "coordinates": [ 32.345675565152881, 62.080486583290032 ] } },
{ "type": "Feature", "properties": { "OSM_ID": 26898826.000000, "NAME": "Зеленоборский", "NAME_EN": "Zelenoborskij", "NAME_RU": "Зеленоборский", "PLACE": "town", "A_CNTR": "RU", "A_RGN": "Мурманская область", "A_DSTRCT": "Кандалакшский район", "A_PSTCD": null, "POPULATION": "6800" }, "geometry": { "type": "Point", "coordinates": [ 32.386909163250301, 66.855981594136139 ] } },
{ "type": "Feature", "properties": { "OSM_ID": 140560218.000000, "NAME": "Сураж", "NAME_EN": null, "NAME_RU": "Сураж", "PLACE": "town", "A_CNTR": "RU", "A_RGN": "Брянская область", "A_DSTRCT": "Суражский район", "A_PSTCD": "243500", "POPULATION": "11583" }, "geometry": { "type": "Point", "coordinates": [ 32.392987581276259, 53.011557539839714 ] } },
{ "type": "Feature", "properties": { "OSM_ID": 336306145.000000, "NAME": "Духовщина", "NAME_EN": "Dukhovshchina", "NAME_RU": "Духовщина", "PLACE": "town", "A_CNTR": "RU", "A_RGN": "Смоленская область", "A_DSTRCT": "Духовщинский район", "A_PSTCD": "216200", "POPULATION": "4103" }, "geometry": { "type": "Point", "coordinates": [ 32.405866647332502, 55.189200852087083 ] } },
{ "type": "Feature", "properties": { "OSM_ID": 690260476.000000, "NAME": "Озёрный", "NAME_EN": null, "NAME_RU": null, "PLACE": "town", "A_CNTR": "RU", "A_RGN": "Смоленская область", "A_DSTRCT": "Духовщинский район", "A_PSTCD": null, "POPULATION": "5863" }, "geometry": { "type": "Point", "coordinates": [ 32.409425960705597, 55.578947144692378 ] } },
{ "type": "Feature", "properties": { "OSM_ID": 26878551.000000, "NAME": "Кандалакша", "NAME_EN": "Kandalaksha", "NAME_RU": "Кандалакша", "PLACE": "town", "A_CNTR": "RU", "A_RGN": "Мурманская область", "A_DSTRCT": "Кандалакшский район", "A_PSTCD": "184041", "POPULATION": "36600" }, "geometry": { "type": "Point", "coordinates": [ 32.412861065144305, 67.149975173121888 ] } },
{ "type": "Feature", "properties": { "OSM_ID": 336306405.000000, "NAME": "Шумячи", "NAME_EN": "Shumyachi", "NAME_RU": "Шумячи", "PLACE": "town", "A_CNTR": "RU", "A_RGN": "Смоленская область", "A_DSTRCT": "Шумячский район", "A_PSTCD": null, "POPULATION": "4387" }, "geometry": { "type": "Point", "coordinates": [ 32.425753747858955, 53.853962137912141 ] } },
{ "type": "Feature", "properties": { "OSM_ID": 336306203.000000, "NAME": "Кардымово", "NAME_EN": "Kardymovo", "NAME_RU": "Кардымово", "PLACE": "town", "A_CNTR": "RU", "A_RGN": "Смоленская область", "A_DSTRCT": "Кардымовский район", "A_PSTCD": "215850", "POPULATION": "5145" }, "geometry": { "type": "Point", "coordinates": [ 32.435795373634008, 54.88831620562528 ] } },
{ "type": "Feature", "properties": { "OSM_ID": 1352189181.000000, "NAME": "Починок", "NAME_EN": "Pochinok", "NAME_RU": "Починок", "PLACE": "town", "A_CNTR": null, "A_RGN": "Смоленская область", "A_DSTRCT": null, "A_PSTCD": null, "POPULATION": "8970" }, "geometry": { "type": "Point", "coordinates": [ 32.440612194716486, 54.403191554689812 ] } },
{ "type": "Feature", "properties": { "OSM_ID": 292226474.000000, "NAME": "Заозёрск", "NAME_EN": "Zaozersk", "NAME_RU": "Заозёрск", "PLACE": "town", "A_CNTR": "RU", "A_RGN": "Мурманская область", "A_DSTRCT": "ЗАТО Заозёрск", "A_PSTCD": null, "POPULATION": "11206" }, "geometry": { "type": "Point", "coordinates": [ 32.441130555505325, 69.399486471860442 ] } },
{ "type": "Feature", "properties": { "OSM_ID": 282635858.000000, "NAME": "Демянск", "NAME_EN": "Demyansk", "NAME_RU": "Демянск", "PLACE": "town", "A_CNTR": "RU", "A_RGN": "Новгородская область", "A_DSTRCT": "Демянский район", "A_PSTCD": null, "POPULATION": "5252" }, "geometry": { "type": "Point", "coordinates": [ 32.464504103654214, 57.640800200075603 ] } },
{ "type": "Feature", "properties": { "OSM_ID": 303353860.000000, "NAME": "Полярные Зори", "NAME_EN": "Polarnie Zori", "NAME_RU": "Полярные Зори", "PLACE": "town", "A_CNTR": "RU", "A_RGN": "Мурманская область", "A_DSTRCT": "городской округ Полярные Зори", "A_PSTCD": null, "POPULATION": "15100" }, "geometry": { "type": "Point", "coordinates": [ 32.495591932839368, 67.372622639228013 ] } },
{ "type": "Feature", "properties": { "OSM_ID": 244220844.000000, "NAME": "Сясьстрой", "NAME_EN": "Syasstroy", "NAME_RU": "Сясьстрой", "PLACE": "town", "A_CNTR": "RU", "A_RGN": "Ленинградская область", "A_DSTRCT": "Волховский район", "A_PSTCD": null, "POPULATION": "13637" }, "geometry": { "type": "Point", "coordinates": [ 32.563563817968578, 60.138166281452897 ] } },
{ "type": "Feature", "properties": { "OSM_ID": 60078390.000000, "NAME": "Унеча", "NAME_EN": "Unecha", "NAME_RU": "Унеча", "PLACE": "town", "A_CNTR": "RU", "A_RGN": "Брянская область", "A_DSTRCT": "Унечский район", "A_PSTCD": "243300", "POPULATION": "26272" }, "geometry": { "type": "Point", "coordinates": [ 32.686515046139235, 52.843506552501772 ] } },
{ "type": "Feature", "properties": { "OSM_ID": 336306167.000000, "NAME": "Ярцево", "NAME_EN": "Yartsevo", "NAME_RU": "Ярцево", "PLACE": "town", "A_CNTR": "RU", "A_RGN": "Смоленская область", "A_DSTRCT": "Ярцевский район", "A_PSTCD": null, "POPULATION": "47853" }, "geometry": { "type": "Point", "coordinates": [ 32.688174814468994, 55.064647686390344 ] } },
{ "type": "Feature", "properties": { "OSM_ID": 628649194.000000, "NAME": "Пено", "NAME_EN": "Peno", "NAME_RU": "Пено", "PLACE": "town", "A_CNTR": "RU", "A_RGN": "Тверская область", "A_DSTRCT": "Пеновский район", "A_PSTCD": null, "POPULATION": "4400" }, "geometry": { "type": "Point", "coordinates": [ 32.742431339978239, 56.923550032844851 ] } },
{ "type": "Feature", "properties": { "OSM_ID": 60078302.000000, "NAME": "Стародуб", "NAME_EN": null, "NAME_RU": "Стародуб", "PLACE": "town", "A_CNTR": "RU", "A_RGN": "Брянская область", "A_DSTRCT": "городской округ Стародуб", "A_PSTCD": null, "POPULATION": "18980" }, "geometry": { "type": "Point", "coordinates": [ 32.759911133756702, 52.582851068592532 ] } },
{ "type": "Feature", "properties": { "OSM_ID": 3210772411.000000, "NAME": "Нелидово", "NAME_EN": null, "NAME_RU": null, "PLACE": "town", "A_CNTR": null, "A_RGN": null, "A_DSTRCT": null, "A_PSTCD": null, "POPULATION": "21020" }, "geometry": { "type": "Point", "coordinates": [ 32.770920676328991, 56.22452527879291 ] } },
{ "type": "Feature", "properties": { "OSM_ID": 986551118.000000, "NAME": "Видяево", "NAME_EN": "Vidyayevo", "NAME_RU": "Видяево", "PLACE": "town", "A_CNTR": "RU", "A_RGN": "Мурманская область", "A_DSTRCT": "ЗАТО Видяево", "A_PSTCD": null, "POPULATION": "5826" }, "geometry": { "type": "Point", "coordinates": [ 32.80650773638493, 69.316563779857219 ] } },
{ "type": "Feature", "properties": { "OSM_ID": 293459034.000000, "NAME": "Мурмаши", "NAME_EN": "Murmashi", "NAME_RU": "Мурмаши", "PLACE": "town", "A_CNTR": "RU", "A_RGN": "Мурманская область", "A_DSTRCT": "Кольский район", "A_PSTCD": null, "POPULATION": "15400" }, "geometry": { "type": "Point", "coordinates": [ 32.816284690254683, 68.815512737630442 ] } },
{ "type": "Feature", "properties": { "OSM_ID": 60699035.000000, "NAME": "Мглин", "NAME_EN": "Mglin", "NAME_RU": "Мглин", "PLACE": "town", "A_CNTR": "RU", "A_RGN": "Брянская область", "A_DSTRCT": "Мглинский район", "A_PSTCD": "243220", "POPULATION": "8200" }, "geometry": { "type": "Point", "coordinates": [ 32.852809696562637, 53.056407742264902 ] } },
{ "type": "Feature", "properties": { "OSM_ID": 60078445.000000, "NAME": "Рославль", "NAME_EN": "Roslavl", "NAME_RU": "Рославль", "PLACE": "town", "A_CNTR": "RU", "A_RGN": "Смоленская область", "A_DSTRCT": "Рославльский район", "A_PSTCD": "216500", "POPULATION": "54898" }, "geometry": { "type": "Point", "coordinates": [ 32.860478555820116, 53.946809355833992 ] } },
{ "type": "Feature", "properties": { "OSM_ID": 682379577.000000, "NAME": "Глинка", "NAME_EN": "Glinka", "NAME_RU": "Глинка", "PLACE": "town", "A_CNTR": "RU", "A_RGN": "Смоленская область", "A_DSTRCT": "Глинковский район", "A_PSTCD": "216320", "POPULATION": "2000" }, "geometry": { "type": "Point", "coordinates": [ 32.873056685931623, 54.640458611580122 ] } },
{ "type": "Feature", "properties": { "OSM_ID": 1628525065.000000, "NAME": "Мончегорск", "NAME_EN": "Monchegorsk", "NAME_RU": "Мончегорск", "PLACE": "town", "A_CNTR": "RU", "A_RGN": "Мурманская область", "A_DSTRCT": "городской округ Мончегорск", "A_PSTCD": "184500", "POPULATION": "45380" }, "geometry": { "type": "Point", "coordinates": [ 32.93145711527751, 67.938444913907333 ] } },
{ "type": "Feature", "properties": { "OSM_ID": 336306051.000000, "NAME": "Белый", "NAME_EN": "Belyy", "NAME_RU": "Белый", "PLACE": "town", "A_CNTR": "RU", "A_RGN": "Тверская область", "A_DSTRCT": "Бельский район", "A_PSTCD": null, "POPULATION": "3900" }, "geometry": { "type": "Point", "coordinates": [ 32.939290497303794, 55.831497583002545 ] } },
{ "type": "Feature", "properties": { "OSM_ID": 1858199523.000000, "NAME": "Олонец", "NAME_EN": "Olonets", "NAME_RU": "Олонец", "PLACE": "town", "A_CNTR": "RU", "A_RGN": "Карелия", "A_DSTRCT": "Олонецкий район", "A_PSTCD": "186000", "POPULATION": "8402" }, "geometry": { "type": "Point", "coordinates": [ 32.974733996314015, 60.977742827296176 ] } },
{ "type": "Feature", "properties": { "OSM_ID": 293459492.000000, "NAME": "Кола", "NAME_EN": "Kola", "NAME_RU": "Кола", "PLACE": "town", "A_CNTR": "RU", "A_RGN": "Мурманская область", "A_DSTRCT": "Кольский район", "A_PSTCD": null, "POPULATION": "10400" }, "geometry": { "type": "Point", "coordinates": [ 33.019495439270763, 68.87919119243081 ] } },
{ "type": "Feature", "properties": { "OSM_ID": 269342417.000000, "NAME": "Мурманск", "NAME_EN": "Murmansk", "NAME_RU": "Мурманск", "PLACE": "city", "A_CNTR": "RU", "A_RGN": "Мурманская область", "A_DSTRCT": "городской округ Мурманск", "A_PSTCD": null, "POPULATION": "307664" }, "geometry": { "type": "Point", "coordinates": [ 33.074736868118507, 68.969220201005157 ] } },
{ "type": "Feature", "properties": { "OSM_ID": 94102909.000000, "NAME": "Осташков", "NAME_EN": "Ostashkov", "NAME_RU": "Осташков", "PLACE": "town", "A_CNTR": "RU", "A_RGN": "Тверская область", "A_DSTRCT": "Осташковский район", "A_PSTCD": null, "POPULATION": "18800" }, "geometry": { "type": "Point", "coordinates": [ 33.123630688359171, 57.138665566031996 ] } },
{ "type": "Feature", "properties": { "OSM_ID": 336306252.000000, "NAME": "Ельня", "NAME_EN": "Yelnya", "NAME_RU": "Ельня", "PLACE": "town", "A_CNTR": "RU", "A_RGN": "Смоленская область", "A_DSTRCT": "Ельнинский район", "A_PSTCD": "216330", "POPULATION": "9910" }, "geometry": { "type": "Point", "coordinates": [ 33.188967562390786, 54.574912187872449 ] } },
{ "type": "Feature", "properties": { "OSM_ID": 336306593.000000, "NAME": "Клетня", "NAME_EN": "Kletnya", "NAME_RU": "Клетня", "PLACE": "town", "A_CNTR": "RU", "A_RGN": "Брянская область", "A_DSTRCT": "Клетнянский район", "A_PSTCD": "242820", "POPULATION": "13500" }, "geometry": { "type": "Point", "coordinates": [ 33.215397951483062, 53.384009664633489 ] } },
{ "type": "Feature", "properties": { "OSM_ID": 795838932.000000, "NAME": "Снежногорск", "NAME_EN": null, "NAME_RU": null, "PLACE": "town", "A_CNTR": "RU", "A_RGN": "Мурманская область", "A_DSTRCT": "ЗАТО Александровск", "A_PSTCD": null, "POPULATION": "14400" }, "geometry": { "type": "Point", "coordinates": [ 33.232112611541581, 69.19047230713791 ] } },
{ "type": "Feature", "properties": { "OSM_ID": 336306159.000000, "NAME": "Сафоново", "NAME_EN": "Safonovo", "NAME_RU": "Сафоново", "PLACE": "town", "A_CNTR": "RU", "A_RGN": "Смоленская область", "A_DSTRCT": "Сафоновский район", "A_PSTCD": null, "POPULATION": "46116" }, "geometry": { "type": "Point", "coordinates": [ 33.237411524184928, 55.10684501442892 ] } },
{ "type": "Feature", "properties": { "OSM_ID": 248561620.000000, "NAME": "Валдай", "NAME_EN": "Valday", "NAME_RU": "Валдай", "PLACE": "town", "A_CNTR": null, "A_RGN": "Новгородская область", "A_DSTRCT": "Валдайский район", "A_PSTCD": null, "POPULATION": "15152" }, "geometry": { "type": "Point", "coordinates": [ 33.253590670083987, 57.977582406052335 ] } },
{ "type": "Feature", "properties": { "OSM_ID": 97816108.000000, "NAME": "Погар", "NAME_EN": "Pogar", "NAME_RU": "Погар", "PLACE": "town", "A_CNTR": "RU", "A_RGN": "Брянская область", "A_DSTRCT": "Погарский район", "A_PSTCD": "243550", "POPULATION": "10841" }, "geometry": { "type": "Point", "coordinates": [ 33.263503766764629, 52.552687412767682 ] } },
{ "type": "Feature", "properties": { "OSM_ID": 1627107363.000000, "NAME": "Оленегорск", "NAME_EN": "Olenegorsk", "NAME_RU": "Оленегорск", "PLACE": "town", "A_CNTR": "RU", "A_RGN": "Мурманская область", "A_DSTRCT": "городской округ Оленегорск", "A_PSTCD": null, "POPULATION": "22400" }, "geometry": { "type": "Point", "coordinates": [ 33.28235331597012, 68.139281084179316 ] } },
{ "type": "Feature", "properties": { "OSM_ID": 500151213.000000, "NAME": "Десногорск", "NAME_EN": "Desnogorsk", "NAME_RU": null, "PLACE": "town", "A_CNTR": "RU", "A_RGN": "Смоленская область", "A_DSTRCT": "городской округ Десногорск", "A_PSTCD": null, "POPULATION": "28728" }, "geometry": { "type": "Point", "coordinates": [ 33.287897739814568, 54.150080295826754 ] } },
{ "type": "Feature", "properties": { "OSM_ID": 336306191.000000, "NAME": "Дорогобуж", "NAME_EN": "Dorogobuzh", "NAME_RU": "Дорогобуж", "PLACE": "town", "A_CNTR": "RU", "A_RGN": "Смоленская область", "A_DSTRCT": "Дорогобужский район", "A_PSTCD": null, "POPULATION": "11089" }, "geometry": { "type": "Point", "coordinates": [ 33.29862920333801, 54.913325879252611 ] } },
{ "type": "Feature", "properties": { "OSM_ID": 282462417.000000, "NAME": "Окуловка", "NAME_EN": "Okulovka", "NAME_RU": "Окуловка", "PLACE": "town", "A_CNTR": null, "A_RGN": "Новгородская область", "A_DSTRCT": "Окуловский район", "A_PSTCD": "174353", "POPULATION": "11587" }, "geometry": { "type": "Point", "coordinates": [ 33.300251536209601, 58.372283597420775 ] } },
{ "type": "Feature", "properties": { "OSM_ID": 292231968.000000, "NAME": "Гаджиево", "NAME_EN": null, "NAME_RU": "Гаджиево", "PLACE": "town", "A_CNTR": "RU", "A_RGN": "Мурманская область", "A_DSTRCT": "ЗАТО Александровск", "A_PSTCD": null, "POPULATION": "13100" }, "geometry": { "type": "Point", "coordinates": [ 33.3150321495051, 69.248922137705193 ] } },
{ "type": "Feature", "properties": { "OSM_ID": 694264962.000000, "NAME": "Верхнеднепровский", "NAME_EN": "Verkhnedneprovskiy", "NAME_RU": "Верхнеднепровский", "PLACE": "town", "A_CNTR": "RU", "A_RGN": "Смоленская область", "A_DSTRCT": "Дорогобужский район", "A_PSTCD": null, "POPULATION": "13212" }, "geometry": { "type": "Point", "coordinates": [ 33.345724170054076, 54.979696425832174 ] } },
{ "type": "Feature", "properties": { "OSM_ID": 26898767.000000, "NAME": "Апатиты", "NAME_EN": "Apatity", "NAME_RU": "Апатиты", "PLACE": "town", "A_CNTR": "RU", "A_RGN": "Мурманская область", "A_DSTRCT": "городской округ Апатиты", "A_PSTCD": "184209", "POPULATION": "61600" }, "geometry": { "type": "Point", "coordinates": [ 33.404147989426598, 67.567164600908413 ] } },
{ "type": "Feature", "properties": { "OSM_ID": 303980218.000000, "NAME": "Североморск", "NAME_EN": "Severomorsk", "NAME_RU": "Североморск", "PLACE": "town", "A_CNTR": "RU", "A_RGN": "Мурманская область", "A_DSTRCT": "ЗАТО Североморск", "A_PSTCD": null, "POPULATION": "53500" }, "geometry": { "type": "Point", "coordinates": [ 33.416404677902243, 69.067722338859468 ] } },
{ "type": "Feature", "properties": { "OSM_ID": 292235034.000000, "NAME": "Полярный", "NAME_EN": "Polyarny", "NAME_RU": "Полярный", "PLACE": "town", "A_CNTR": "RU", "A_RGN": "Мурманская область", "A_DSTRCT": "ЗАТО Александровск", "A_PSTCD": null, "POPULATION": "16200" }, "geometry": { "type": "Point", "coordinates": [ 33.4455849142782, 69.198080571256909 ] } },
{ "type": "Feature", "properties": { "OSM_ID": 94091844.000000, "NAME": "Селижарово", "NAME_EN": "Selizharovo", "NAME_RU": "Селижарово", "PLACE": "town", "A_CNTR": "RU", "A_RGN": "Тверская область", "A_DSTRCT": "Селижаровский район", "A_PSTCD": null, "POPULATION": "6900" }, "geometry": { "type": "Point", "coordinates": [ 33.452285944557822, 56.848832544148081 ] } },
{ "type": "Feature", "properties": { "OSM_ID": 1592488757.000000, "NAME": "Почеп", "NAME_EN": null, "NAME_RU": null, "PLACE": "town", "A_CNTR": "RU", "A_RGN": "Брянская область", "A_DSTRCT": "Почепский район", "A_PSTCD": null, "POPULATION": "17260" }, "geometry": { "type": "Point", "coordinates": [ 33.454327058837578, 52.927186886306451 ] } },
{ "type": "Feature", "properties": { "OSM_ID": 356483022.000000, "NAME": "Оленино", "NAME_EN": "Olenino", "NAME_RU": "Оленино", "PLACE": "town", "A_CNTR": "RU", "A_RGN": "Тверская область", "A_DSTRCT": "Оленинский район", "A_PSTCD": null, "POPULATION": "4800" }, "geometry": { "type": "Point", "coordinates": [ 33.479818765496042, 56.207418011989112 ] } },
{ "type": "Feature", "properties": { "OSM_ID": 411766710.000000, "NAME": "Белая Берёзка", "NAME_EN": null, "NAME_RU": "Белая Берёзка", "PLACE": "town", "A_CNTR": "RU", "A_RGN": "Брянская область", "A_DSTRCT": "Трубчевский район", "A_PSTCD": "242250", "POPULATION": "6466" }, "geometry": { "type": "Point", "coordinates": [ 33.487204411344543, 52.380252773922656 ] } },
{ "type": "Feature", "properties": { "OSM_ID": 336306499.000000, "NAME": "Дубровка", "NAME_EN": "Dubrovka", "NAME_RU": "Дубровка", "PLACE": "town", "A_CNTR": "RU", "A_RGN": "Брянская область", "A_DSTRCT": "Дубровский район", "A_PSTCD": "242750", "POPULATION": "8235" }, "geometry": { "type": "Point", "coordinates": [ 33.504777001840118, 53.68818701709926 ] } },
{ "type": "Feature", "properties": { "OSM_ID": 27446511.000000, "NAME": "Тихвин", "NAME_EN": "Tikhvin", "NAME_RU": "Тихвин", "PLACE": "town", "A_CNTR": "RU", "A_RGN": "Ленинградская область", "A_DSTRCT": "Тихвинский район", "A_PSTCD": null, "POPULATION": "58289" }, "geometry": { "type": "Point", "coordinates": [ 33.534250794244571, 59.641654826765908 ] } },
{ "type": "Feature", "properties": { "OSM_ID": 248517049.000000, "NAME": "Лодейное Поле", "NAME_EN": "Lodeynoye Pole", "NAME_RU": "Лодейное Поле", "PLACE": "town", "A_CNTR": "RU", "A_RGN": "Ленинградская область", "A_DSTRCT": "Лодейнопольский район", "A_PSTCD": null, "POPULATION": "20283" }, "geometry": { "type": "Point", "coordinates": [ 33.545547832352632, 60.732397150463186 ] } },
{ "type": "Feature", "properties": { "OSM_ID": 309773771.000000, "NAME": "Пряжа", "NAME_EN": "Pryazha", "NAME_RU": "Пряжа", "PLACE": "town", "A_CNTR": "RU", "A_RGN": "Карелия", "A_DSTRCT": "Пряжинский район", "A_PSTCD": null, "POPULATION": "3555" }, "geometry": { "type": "Point", "coordinates": [ 33.622506959973464, 61.691632799660781 ] } },
{ "type": "Feature", "properties": { "OSM_ID": 26898769.000000, "NAME": "Кировск", "NAME_EN": "Kirovsk", "NAME_RU": "Кировск", "PLACE": "town", "A_CNTR": "RU", "A_RGN": "Мурманская область", "A_DSTRCT": "городской округ Кировск", "A_PSTCD": null, "POPULATION": "28700" }, "geometry": { "type": "Point", "coordinates": [ 33.663495182250273, 67.613672784453158 ] } },
{ "type": "Feature", "properties": { "OSM_ID": 1187053943.000000, "NAME": "Озёрный", "NAME_EN": "Ozyorny", "NAME_RU": "Озёрный", "PLACE": "town", "A_CNTR": null, "A_RGN": "Тверская область", "A_DSTRCT": null, "A_PSTCD": null, "POPULATION": "1000" }, "geometry": { "type": "Point", "coordinates": [ 33.686433399489232, 57.866495246603122 ] } },
{ "type": "Feature", "properties": { "OSM_ID": 356482677.000000, "NAME": "Фирово", "NAME_EN": "Firovo", "NAME_RU": "Фирово", "PLACE": "town", "A_CNTR": "RU", "A_RGN": "Тверская область", "A_DSTRCT": "Фировский район", "A_PSTCD": null, "POPULATION": "2500" }, "geometry": { "type": "Point", "coordinates": [ 33.697835751474358, 57.479483133315114 ] } },
{ "type": "Feature", "properties": { "OSM_ID": 1290292137.000000, "NAME": "Жуковка", "NAME_EN": null, "NAME_RU": "Жуковка", "PLACE": "town", "A_CNTR": "RU", "A_RGN": "Брянская область", "A_DSTRCT": "Жуковский район", "A_PSTCD": "242700", "POPULATION": "18243" }, "geometry": { "type": "Point", "coordinates": [ 33.731867598028323, 53.531371495207601 ] } },
{ "type": "Feature", "properties": { "OSM_ID": 97811692.000000, "NAME": "Трубчевск", "NAME_EN": null, "NAME_RU": "Трубчевск", "PLACE": "town", "A_CNTR": "RU", "A_RGN": "Брянская область", "A_DSTRCT": "Трубчевский район", "A_PSTCD": "242220", "POPULATION": "14648" }, "geometry": { "type": "Point", "coordinates": [ 33.767249662651906, 52.581904136850952 ] } },
{ "type": "Feature", "properties": { "OSM_ID": 356482509.000000, "NAME": "Бокситогорск", "NAME_EN": "Boksitogorsk", "NAME_RU": "Бокситогорск", "PLACE": "town", "A_CNTR": "RU", "A_RGN": "Ленинградская область", "A_DSTRCT": "Бокситогорский район", "A_PSTCD": null, "POPULATION": "16028" }, "geometry": { "type": "Point", "coordinates": [ 33.848761636727275, 59.47135583968835 ] } },
{ "type": "Feature", "properties": { "OSM_ID": 287260036.000000, "NAME": "Боровичи", "NAME_EN": "Borovichi", "NAME_RU": "Боровичи", "PLACE": "town", "A_CNTR": null, "A_RGN": "Новгородская область", "A_DSTRCT": "Боровичский район", "A_PSTCD": null, "POPULATION": "53141" }, "geometry": { "type": "Point", "coordinates": [ 33.906594463288556, 58.387453660161739 ] } },
{ "type": "Feature", "properties": { "OSM_ID": 708180681.000000, "NAME": "Бетлица", "NAME_EN": null, "NAME_RU": null, "PLACE": "town", "A_CNTR": "RU", "A_RGN": "Калужская область", "A_DSTRCT": "Куйбышевский район", "A_PSTCD": "249500", "POPULATION": "3800" }, "geometry": { "type": "Point", "coordinates": [ 33.942872166080321, 54.016957762972964 ] } },
{ "type": "Feature", "properties": { "OSM_ID": 336306262.000000, "NAME": "Спас-Деменск", "NAME_EN": "Spas-Demensk", "NAME_RU": "Спас-Деменск", "PLACE": "town", "A_CNTR": "RU", "A_RGN": "Калужская область", "A_DSTRCT": "Спас-Деменский район", "A_PSTCD": "249610, 249611", "POPULATION": "4964" }, "geometry": { "type": "Point", "coordinates": [ 34.032170368446465, 54.410216120558147 ] } },
{ "type": "Feature", "properties": { "OSM_ID": 248561802.000000, "NAME": "Бологое", "NAME_EN": "Bologoe", "NAME_RU": "Бологое", "PLACE": "town", "A_CNTR": "RU", "A_RGN": "Тверская область", "A_DSTRCT": "Бологовский район", "A_PSTCD": null, "POPULATION": "23800" }, "geometry": { "type": "Point", "coordinates": [ 34.049366614520906, 57.883645705862776 ] } },
{ "type": "Feature", "properties": { "OSM_ID": 2539625226.000000, "NAME": "Выгоничи", "NAME_EN": null, "NAME_RU": null, "PLACE": "town", "A_CNTR": "RU", "A_RGN": "Брянская область", "A_DSTRCT": "Выгоничский район", "A_PSTCD": null, "POPULATION": "5290" }, "geometry": { "type": "Point", "coordinates": [ 34.068512243077578, 53.096424678019247 ] } },
{ "type": "Feature", "properties": { "OSM_ID": 291614444.000000, "NAME": "Суземка", "NAME_EN": "Suzemka", "NAME_RU": "Суземка", "PLACE": "town", "A_CNTR": "RU", "A_RGN": "Брянская область", "A_DSTRCT": "Суземский район", "A_PSTCD": "242190", "POPULATION": "9347" }, "geometry": { "type": "Point", "coordinates": [ 34.075721544502123, 52.314537164971135 ] } },
{ "type": "Feature", "properties": { "OSM_ID": 336306594.000000, "NAME": "Сельцо", "NAME_EN": null, "NAME_RU": "Сельцо", "PLACE": "town", "A_CNTR": "RU", "A_RGN": "Брянская область", "A_DSTRCT": "городской округ Сельцо", "A_PSTCD": "241550", "POPULATION": "18015" }, "geometry": { "type": "Point", "coordinates": [ 34.100384446608416, 53.368386631608068 ] } },
{ "type": "Feature", "properties": { "OSM_ID": 3260464422.000000, "NAME": "Старь", "NAME_EN": null, "NAME_RU": null, "PLACE": "town", "A_CNTR": null, "A_RGN": null, "A_DSTRCT": null, "A_PSTCD": null, "POPULATION": "4826" }, "geometry": { "type": "Point", "coordinates": [ 34.149917093837196, 53.617167696404032 ] } },
{ "type": "Feature", "properties": { "OSM_ID": 312404669.000000, "NAME": "Подпорожье", "NAME_EN": "Podporozhye", "NAME_RU": "Подпорожье", "PLACE": "town", "A_CNTR": "RU", "A_RGN": "Ленинградская область", "A_DSTRCT": "Подпорожский район", "A_PSTCD": "187783", "POPULATION": "18285" }, "geometry": { "type": "Point", "coordinates": [ 34.162102841012619, 60.912759765284953 ] } },
{ "type": "Feature", "properties": { "OSM_ID": 244064712.000000, "NAME": "Пикалёво", "NAME_EN": "Pikalyovo", "NAME_RU": "Пикалёво", "PLACE": "town", "A_CNTR": "RU", "A_RGN": "Ленинградская область", "A_DSTRCT": "Бокситогорский район", "A_PSTCD": null, "POPULATION": "20864" }, "geometry": { "type": "Point", "coordinates": [ 34.177096070257186, 59.511356620061306 ] } },
{ "type": "Feature", "properties": { "OSM_ID": 356482731.000000, "NAME": "Кувшиново", "NAME_EN": "Kuvshinovo", "NAME_RU": "Кувшиново", "PLACE": "town", "A_CNTR": "RU", "A_RGN": "Тверская область", "A_DSTRCT": "Кувшиновский район", "A_PSTCD": null, "POPULATION": "10125" }, "geometry": { "type": "Point", "coordinates": [ 34.179424097642858, 57.0298999084511 ] } },
{ "type": "Feature", "properties": { "OSM_ID": 26898776.000000, "NAME": "Надвоицы", "NAME_EN": "Nadvoitsy", "NAME_RU": "Надвоицы", "PLACE": "town", "A_CNTR": "RU", "A_RGN": "Карелия", "A_DSTRCT": "Сегежский район", "A_PSTCD": "186430", "POPULATION": "8025" }, "geometry": { "type": "Point", "coordinates": [ 34.265744984390167, 63.890901722087037 ] } },
{ "type": "Feature", "properties": { "OSM_ID": 26921263.000000, "NAME": "Кондопога", "NAME_EN": "Kondopoga", "NAME_RU": "Кондопога", "PLACE": "town", "A_CNTR": "RU", "A_RGN": "Карелия", "A_DSTRCT": "Кондопожский район", "A_PSTCD": null, "POPULATION": "31646" }, "geometry": { "type": "Point", "coordinates": [ 34.26790499292283, 62.207770475268156 ] } },
{ "type": "Feature", "properties": { "OSM_ID": 94075151.000000, "NAME": "Сычёвка", "NAME_EN": null, "NAME_RU": null, "PLACE": "town", "A_CNTR": "RU", "A_RGN": "Смоленская область", "A_DSTRCT": "Сычёвский район", "A_PSTCD": "215280", "POPULATION": "7512" }, "geometry": { "type": "Point", "coordinates": [ 34.276805165012405, 55.825416377927233 ] } },
{ "type": "Feature", "properties": { "OSM_ID": 2142156995.000000, "NAME": "Тёткино", "NAME_EN": null, "NAME_RU": null, "PLACE": "town", "A_CNTR": "RU", "A_RGN": "Курская область", "A_DSTRCT": "Глушковский район", "A_PSTCD": null, "POPULATION": "4061" }, "geometry": { "type": "Point", "coordinates": [ 34.283480242667679, 51.273655315170473 ] } },
{ "type": "Feature", "properties": { "OSM_ID": 262522404.000000, "NAME": "Вязьма", "NAME_EN": null, "NAME_RU": null, "PLACE": "town", "A_CNTR": "RU", "A_RGN": "Смоленская область", "A_DSTRCT": "Вяземский район", "A_PSTCD": null, "POPULATION": "57103" }, "geometry": { "type": "Point", "coordinates": [ 34.299278852961137, 55.208777712232347 ] } },
{ "type": "Feature", "properties": { "OSM_ID": 336306078.000000, "NAME": "Новодугино", "NAME_EN": "Novodugino", "NAME_RU": "Новодугино", "PLACE": "town", "A_CNTR": "RU", "A_RGN": "Смоленская область", "A_DSTRCT": "Новодугинский район", "A_PSTCD": null, "POPULATION": "3865" }, "geometry": { "type": "Point", "coordinates": [ 34.300791562221164, 55.628457238332636 ] } },
{ "type": "Feature", "properties": { "OSM_ID": 336306384.000000, "NAME": "Киров", "NAME_EN": "Kirov", "NAME_RU": "Киров", "PLACE": "town", "A_CNTR": "RU", "A_RGN": "Калужская область", "A_DSTRCT": "Кировский район", "A_PSTCD": null, "POPULATION": "38700" }, "geometry": { "type": "Point", "coordinates": [ 34.302369342105848, 54.07273409802913 ] } },
{ "type": "Feature", "properties": { "OSM_ID": 26898825.000000, "NAME": "Сегежа", "NAME_EN": null, "NAME_RU": "Сегежа", "PLACE": "town", "A_CNTR": "RU", "A_RGN": "Карелия", "A_DSTRCT": "Сегежский район", "A_PSTCD": "186420", "POPULATION": "28117" }, "geometry": { "type": "Point", "coordinates": [ 34.310419672418782, 63.742004166499001 ] } },
{ "type": "Feature", "properties": { "OSM_ID": 336306193.000000, "NAME": "Угра", "NAME_EN": "Ugra", "NAME_RU": "Угра", "PLACE": "town", "A_CNTR": "RU", "A_RGN": "Смоленская область", "A_DSTRCT": "Угранский район", "A_PSTCD": null, "POPULATION": "4586" }, "geometry": { "type": "Point", "coordinates": [ 34.318315846066085, 54.779722924701517 ] } },
{ "type": "Feature", "properties": { "OSM_ID": 814620639.000000, "NAME": "Ржев", "NAME_EN": "Rzhev", "NAME_RU": "Ржев", "PLACE": "town", "A_CNTR": "RU", "A_RGN": "Тверская область", "A_DSTRCT": null, "A_PSTCD": null, "POPULATION": "60100" }, "geometry": { "type": "Point", "coordinates": [ 34.329905734600139, 56.25769225448289 ] } },
{ "type": "Feature", "properties": { "OSM_ID": 303015164.000000, "NAME": "Умба", "NAME_EN": "Umba", "NAME_RU": "Умба", "PLACE": "town", "A_CNTR": "RU", "A_RGN": "Мурманская область", "A_DSTRCT": "Терский район", "A_PSTCD": null, "POPULATION": "5530" }, "geometry": { "type": "Point", "coordinates": [ 34.337690409466589, 66.677107047317079 ] } },
{ "type": "Feature", "properties": { "OSM_ID": 336306431.000000, "NAME": "Дятьково", "NAME_EN": "Dyatkovo", "NAME_RU": "Дятьково", "PLACE": "town", "A_CNTR": "RU", "A_RGN": "Брянская область", "A_DSTRCT": "Дятьковский район", "A_PSTCD": null, "POPULATION": "31629" }, "geometry": { "type": "Point", "coordinates": [ 34.337861801838848, 53.599411398698223 ] } },
{ "type": "Feature", "properties": { "OSM_ID": 27073428.000000, "NAME": "Брянск", "NAME_EN": "Bryansk", "NAME_RU": "Брянск", "PLACE": "city", "A_CNTR": "RU", "A_RGN": "Брянская область", "A_DSTRCT": "городской округ Брянск", "A_PSTCD": null, "POPULATION": "431600" }, "geometry": { "type": "Point", "coordinates": [ 34.366153187992154, 53.240764651020115 ] } },
{ "type": "Feature", "properties": { "OSM_ID": 26903504.000000, "NAME": "Петрозаводск", "NAME_EN": "Petrozavodsk", "NAME_RU": "Петрозаводск", "PLACE": "city", "A_CNTR": "RU", "A_RGN": "Карелия", "A_DSTRCT": null, "A_PSTCD": null, "POPULATION": "272101" }, "geometry": { "type": "Point", "coordinates": [ 34.389746448750607, 61.788512840650668 ] } },
{ "type": "Feature", "properties": { "OSM_ID": 612035388.000000, "NAME": "Красномайский", "NAME_EN": null, "NAME_RU": null, "PLACE": "town", "A_CNTR": null, "A_RGN": "Тверская область", "A_DSTRCT": null, "A_PSTCD": null, "POPULATION": "5000" }, "geometry": { "type": "Point", "coordinates": [ 34.415202368898733, 57.620859101331867 ] } },
{ "type": "Feature", "properties": { "OSM_ID": 336306478.000000, "NAME": "Фокино", "NAME_EN": "Fokino", "NAME_RU": "Фокино", "PLACE": "town", "A_CNTR": "RU", "A_RGN": "Брянская область", "A_DSTRCT": null, "A_PSTCD": "242610", "POPULATION": "14680" }, "geometry": { "type": "Point", "coordinates": [ 34.415218278128876, 53.451073083197279 ] } },
{ "type": "Feature", "properties": { "OSM_ID": 336306403.000000, "NAME": "Людиново", "NAME_EN": "Lyudinovo", "NAME_RU": "Людиново", "PLACE": "town", "A_CNTR": "RU", "A_RGN": "Калужская область", "A_DSTRCT": "Людиновский район", "A_PSTCD": null, "POPULATION": "41127" }, "geometry": { "type": "Point", "coordinates": [ 34.447571922205732, 53.863128623998172 ] } },
{ "type": "Feature", "properties": { "OSM_ID": 1828409507.000000, "NAME": "Медвежьегорск", "NAME_EN": "Medvezhyegorsk", "NAME_RU": "Медвежьегорск", "PLACE": "town", "A_CNTR": "RU", "A_RGN": "Карелия", "A_DSTRCT": "Медвежьегорский район", "A_PSTCD": null, "POPULATION": "14833" }, "geometry": { "type": "Point", "coordinates": [ 34.473070262166679, 62.913512019542509 ] } },
{ "type": "Feature", "properties": { "OSM_ID": 140562335.000000, "NAME": "Севск", "NAME_EN": null, "NAME_RU": "Севск", "PLACE": "town", "A_CNTR": "RU", "A_RGN": "Брянская область", "A_DSTRCT": "Севский район", "A_PSTCD": "242440", "POPULATION": "7500" }, "geometry": { "type": "Point", "coordinates": [ 34.494331465983251, 52.154425555536655 ] } },
{ "type": "Feature", "properties": { "OSM_ID": 140563839.000000, "NAME": "Навля", "NAME_EN": null, "NAME_RU": null, "PLACE": "town", "A_CNTR": "RU", "A_RGN": "Брянская область", "A_DSTRCT": "Навлинский район", "A_PSTCD": "242130", "POPULATION": "14200" }, "geometry": { "type": "Point", "coordinates": [ 34.506157638895594, 52.826007124230436 ] } },
{ "type": "Feature", "properties": { "OSM_ID": 27492465.000000, "NAME": "Хвойная", "NAME_EN": null, "NAME_RU": null, "PLACE": "town", "A_CNTR": "RU", "A_RGN": "Новгородская область", "A_DSTRCT": "Хвойнинский район", "A_PSTCD": null, "POPULATION": "6144" }, "geometry": { "type": "Point", "coordinates": [ 34.511822644997672, 58.89421170425787 ] } },
{ "type": "Feature", "properties": { "OSM_ID": 303019430.000000, "NAME": "Ревда", "NAME_EN": "Revda", "NAME_RU": "Ревда", "PLACE": "town", "A_CNTR": "RU", "A_RGN": "Мурманская область", "A_DSTRCT": "Ловозерский район", "A_PSTCD": "184580", "POPULATION": "8500" }, "geometry": { "type": "Point", "coordinates": [ 34.548666283109554, 67.940087331186305 ] } },
{ "type": "Feature", "properties": { "OSM_ID": 383335227.000000, "NAME": "Хомутовка", "NAME_EN": "Khomutovka", "NAME_RU": "Хомутовка", "PLACE": "town", "A_CNTR": "RU", "A_RGN": "Курская область", "A_DSTRCT": "Хомутовский район", "A_PSTCD": null, "POPULATION": "4118" }, "geometry": { "type": "Point", "coordinates": [ 34.555207938814888, 51.91984169863845 ] } },
{ "type": "Feature", "properties": { "OSM_ID": 309493556.000000, "NAME": "Кемь", "NAME_EN": null, "NAME_RU": "Кемь", "PLACE": "town", "A_CNTR": "RU", "A_RGN": "Карелия", "A_DSTRCT": "Кемский район", "A_PSTCD": null, "POPULATION": "12191" }, "geometry": { "type": "Point", "coordinates": [ 34.569459832375699, 64.953598514996258 ] } },
{ "type": "Feature", "properties": { "OSM_ID": 27001056.000000, "NAME": "Вышний Волочёк", "NAME_EN": "Vysnij Volocek", "NAME_RU": "Вышний Волочёк", "PLACE": "town", "A_CNTR": "RU", "A_RGN": "Тверская область", "A_DSTRCT": "городской округ Вышний Волочёк", "A_PSTCD": null, "POPULATION": "51400" }, "geometry": { "type": "Point", "coordinates": [ 34.571143643930931, 57.586741656853363 ] } },
{ "type": "Feature", "properties": { "OSM_ID": 336140248.000000, "NAME": "Локоть", "NAME_EN": "Lokot", "NAME_RU": "Локоть", "PLACE": "town", "A_CNTR": "RU", "A_RGN": "Брянская область", "A_DSTRCT": "Брасовский район", "A_PSTCD": null, "POPULATION": "12000" }, "geometry": { "type": "Point", "coordinates": [ 34.571423510782346, 52.570637782747227 ] } },
{ "type": "Feature", "properties": { "OSM_ID": 285962678.000000, "NAME": "Зубцов", "NAME_EN": "Zubtsov", "NAME_RU": "Зубцов", "PLACE": "town", "A_CNTR": "RU", "A_RGN": "Тверская область", "A_DSTRCT": "Зубцовский район", "A_PSTCD": null, "POPULATION": "7000" }, "geometry": { "type": "Point", "coordinates": [ 34.584931241363677, 56.16849800253086 ] } },
{ "type": "Feature", "properties": { "OSM_ID": 336140693.000000, "NAME": "Глушково", "NAME_EN": "Glushkovo", "NAME_RU": "Глушково", "PLACE": "town", "A_CNTR": "RU", "A_RGN": "Курская область", "A_DSTRCT": "Глушковский район", "A_PSTCD": null, "POPULATION": "5762" }, "geometry": { "type": "Point", "coordinates": [ 34.637065897196827, 51.337531103115914 ] } },
{ "type": "Feature", "properties": { "OSM_ID": 1589807663.000000, "NAME": "Ефимовский", "NAME_EN": "Yefimovskiy", "NAME_RU": "Ефимовский", "PLACE": "town", "A_CNTR": "RU", "A_RGN": "Ленинградская область", "A_DSTRCT": "Бокситогорский район", "A_PSTCD": "187620", "POPULATION": "3718" }, "geometry": { "type": "Point", "coordinates": [ 34.661565138810012, 59.495917785011073 ] } },
{ "type": "Feature", "properties": { "OSM_ID": 336140540.000000, "NAME": "Рыльск", "NAME_EN": "Rylsk", "NAME_RU": "Рыльск", "PLACE": "town", "A_CNTR": "RU", "A_RGN": "Курская область", "A_DSTRCT": "Рыльский район", "A_PSTCD": null, "POPULATION": "15700" }, "geometry": { "type": "Point", "coordinates": [ 34.683261340754214, 51.568940140323619 ] } },
{ "type": "Feature", "properties": { "OSM_ID": 336306505.000000, "NAME": "Жиздра", "NAME_EN": "Zhizdra", "NAME_RU": "Жиздра", "PLACE": "town", "A_CNTR": "RU", "A_RGN": "Калужская область", "A_DSTRCT": "Жиздринский район", "A_PSTCD": null, "POPULATION": "5996" }, "geometry": { "type": "Point", "coordinates": [ 34.73519519201723, 53.746954022992185 ] } },
{ "type": "Feature", "properties": { "OSM_ID": 276627958.000000, "NAME": "Беломорск", "NAME_EN": "Belomorsk", "NAME_RU": "Беломорск", "PLACE": "town", "A_CNTR": "RU", "A_RGN": "Карелия", "A_DSTRCT": "Беломорский район", "A_PSTCD": "186500", "POPULATION": "10372" }, "geometry": { "type": "Point", "coordinates": [ 34.762292709831442, 64.520172782733468 ] } },
{ "type": "Feature", "properties": { "OSM_ID": 336140311.000000, "NAME": "Комаричи", "NAME_EN": "Komarichi", "NAME_RU": "Комаричи", "PLACE": "town", "A_CNTR": "RU", "A_RGN": "Брянская область", "A_DSTRCT": "Комаричский район", "A_PSTCD": "242400", "POPULATION": "7900" }, "geometry": { "type": "Point", "coordinates": [ 34.788234409174592, 52.414557890901968 ] } },
{ "type": "Feature", "properties": { "OSM_ID": 336140670.000000, "NAME": "Коренево", "NAME_EN": "Korenevo", "NAME_RU": "Коренево", "PLACE": "town", "A_CNTR": "RU", "A_RGN": "Курская область", "A_DSTRCT": "Кореневский район", "A_PSTCD": null, "POPULATION": "5841" }, "geometry": { "type": "Point", "coordinates": [ 34.896838968237951, 51.412634918975705 ] } },
{ "type": "Feature", "properties": { "OSM_ID": 626927651.000000, "NAME": "Старица", "NAME_EN": "Staritsa", "NAME_RU": null, "PLACE": "town", "A_CNTR": "RU", "A_RGN": "Тверская область", "A_DSTRCT": "Старицкий район", "A_PSTCD": "171361", "POPULATION": "9100" }, "geometry": { "type": "Point", "coordinates": [ 34.931226514291268, 56.506253011539599 ] } },
{ "type": "Feature", "properties": { "OSM_ID": 60405981.000000, "NAME": "Торжок", "NAME_EN": "Torzhok", "NAME_RU": "Торжок", "PLACE": "town", "A_CNTR": "RU", "A_RGN": "Тверская область", "A_DSTRCT": null, "A_PSTCD": "172000", "POPULATION": "47275" }, "geometry": { "type": "Point", "coordinates": [ 34.973104619759575, 57.039228599005426 ] } },
{ "type": "Feature", "properties": { "OSM_ID": 414169516.000000, "NAME": "Мосальск", "NAME_EN": null, "NAME_RU": null, "PLACE": "town", "A_CNTR": "RU", "A_RGN": "Калужская область", "A_DSTRCT": "Мосальский район", "A_PSTCD": null, "POPULATION": "3900" }, "geometry": { "type": "Point", "coordinates": [ 34.978693610964854, 54.48570992355193 ] } },
{ "type": "Feature", "properties": { "OSM_ID": 356482685.000000, "NAME": "Спирово", "NAME_EN": "Spirovo", "NAME_RU": "Спирово", "PLACE": "town", "A_CNTR": "RU", "A_RGN": "Тверская область", "A_DSTRCT": null, "A_PSTCD": null, "POPULATION": "6400" }, "geometry": { "type": "Point", "coordinates": [ 34.993009657795511, 57.419968923630563 ] } },
{ "type": "Feature", "properties": { "OSM_ID": 1843833227.000000, "NAME": "Карачев", "NAME_EN": null, "NAME_RU": null, "PLACE": "town", "A_CNTR": "RU", "A_RGN": "Брянская область", "A_DSTRCT": "Карачевский район", "A_PSTCD": null, "POPULATION": "19432" }, "geometry": { "type": "Point", "coordinates": [ 34.99649822445857, 53.122599200227612 ] } },
{ "type": "Feature", "properties": { "OSM_ID": 1921466406.000000, "NAME": "Гагарин", "NAME_EN": "Gagarin", "NAME_RU": "Гагарин", "PLACE": "town", "A_CNTR": "RU", "A_RGN": "Смоленская область", "A_DSTRCT": "Гагаринский район", "A_PSTCD": "215010", "POPULATION": "31721" }, "geometry": { "type": "Point", "coordinates": [ 34.996600082206619, 55.551807235064011 ] } },
{ "type": "Feature", "properties": { "OSM_ID": 356482620.000000, "NAME": "Удомля", "NAME_EN": "Udomlya", "NAME_RU": "Удомля", "PLACE": "town", "A_CNTR": "RU", "A_RGN": "Тверская область", "A_DSTRCT": "Удомельский район", "A_PSTCD": null, "POPULATION": "31200" }, "geometry": { "type": "Point", "coordinates": [ 35.003929010225725, 57.876441410754794 ] } },
{ "type": "Feature", "properties": { "OSM_ID": 336140369.000000, "NAME": "Дмитриев-Льговский", "NAME_EN": "Dmitriyev", "NAME_RU": "Дмитриев-Льговский", "PLACE": "town", "A_CNTR": "RU", "A_RGN": "Курская область", "A_DSTRCT": "Дмитриевский район", "A_PSTCD": "307500", "POPULATION": "7721" }, "geometry": { "type": "Point", "coordinates": [ 35.075182427450635, 52.126895988883277 ] } },
{ "type": "Feature", "properties": { "OSM_ID": 336306461.000000, "NAME": "Думиничи", "NAME_EN": "Duminichi", "NAME_RU": "Думиничи", "PLACE": "town", "A_CNTR": "RU", "A_RGN": "Калужская область", "A_DSTRCT": "Думиничский район", "A_PSTCD": null, "POPULATION": "7779" }, "geometry": { "type": "Point", "coordinates": [ 35.114342599238292, 53.931487012367654 ] } },
{ "type": "Feature", "properties": { "OSM_ID": 336140258.000000, "NAME": "Дмитровск", "NAME_EN": "Dmitrovsk-Orlovskiy", "NAME_RU": "Дмитровск", "PLACE": "town", "A_CNTR": "RU", "A_RGN": "Орловская область", "A_DSTRCT": "Дмитровский район", "A_PSTCD": null, "POPULATION": "5956" }, "geometry": { "type": "Point", "coordinates": [ 35.145464296867473, 52.507824438124572 ] } },
{ "type": "Feature", "properties": { "OSM_ID": 1006266644.000000, "NAME": "Шаблыкино", "NAME_EN": null, "NAME_RU": null, "PLACE": "town", "A_CNTR": "RU", "A_RGN": "Орловская область", "A_DSTRCT": "Шаблыкинский район", "A_PSTCD": "303260", "POPULATION": "3358" }, "geometry": { "type": "Point", "coordinates": [ 35.194981630332649, 52.852365745269516 ] } },
{ "type": "Feature", "properties": { "OSM_ID": 244066104.000000, "NAME": "Сазоново", "NAME_EN": null, "NAME_RU": null, "PLACE": "town", "A_CNTR": "RU", "A_RGN": "Вологодская область", "A_DSTRCT": "Чагодощенский район", "A_PSTCD": null, "POPULATION": "3132" }, "geometry": { "type": "Point", "coordinates": [ 35.22373127267376, 59.096646784090119 ] } },
{ "type": "Feature", "properties": { "OSM_ID": 89982639.000000, "NAME": "Юхнов", "NAME_EN": null, "NAME_RU": null, "PLACE": "town", "A_CNTR": "RU", "A_RGN": "Калужская область", "A_DSTRCT": "Юхновский район", "A_PSTCD": null, "POPULATION": "6659" }, "geometry": { "type": "Point", "coordinates": [ 35.225984785477401, 54.739881047866909 ] } },
{ "type": "Feature", "properties": { "OSM_ID": 849853637.000000, "NAME": "Середейский", "NAME_EN": null, "NAME_RU": null, "PLACE": "town", "A_CNTR": null, "A_RGN": null, "A_DSTRCT": null, "A_PSTCD": null, "POPULATION": "1782" }, "geometry": { "type": "Point", "coordinates": [ 35.230215182088891, 54.0489313204341 ] } },
{ "type": "Feature", "properties": { "OSM_ID": 356482722.000000, "NAME": "Калашниково", "NAME_EN": "Kalashnikovo", "NAME_RU": "Калашниково", "PLACE": "town", "A_CNTR": "RU", "A_RGN": "Тверская область", "A_DSTRCT": "Лихославльский район", "A_PSTCD": null, "POPULATION": "4700" }, "geometry": { "type": "Point", "coordinates": [ 35.230530977181225, 57.277935753674463 ] } },
{ "type": "Feature", "properties": { "OSM_ID": 336140766.000000, "NAME": "Суджа", "NAME_EN": "Sudzha", "NAME_RU": "Суджа", "PLACE": "town", "A_CNTR": "RU", "A_RGN": "Курская область", "A_DSTRCT": "Суджанский район", "A_PSTCD": null, "POPULATION": "5852" }, "geometry": { "type": "Point", "coordinates": [ 35.270592099081362, 51.189106815673007 ] } },
{ "type": "Feature", "properties": { "OSM_ID": 336140489.000000, "NAME": "Льгов", "NAME_EN": "L'gov", "NAME_RU": "Льгов", "PLACE": "town", "A_CNTR": null, "A_RGN": null, "A_DSTRCT": null, "A_PSTCD": null, "POPULATION": "21452" }, "geometry": { "type": "Point", "coordinates": [ 35.283735550149821, 51.689060433755827 ] } },
{ "type": "Feature", "properties": { "OSM_ID": 336306319.000000, "NAME": "Мещовск", "NAME_EN": "Meshchovsk", "NAME_RU": "Мещовск", "PLACE": "town", "A_CNTR": "RU", "A_RGN": "Калужская область", "A_DSTRCT": "Мещовский район", "A_PSTCD": null, "POPULATION": "4386" }, "geometry": { "type": "Point", "coordinates": [ 35.284888547695502, 54.315970713640311 ] } },
{ "type": "Feature", "properties": { "OSM_ID": 336140471.000000, "NAME": "Конышёвка", "NAME_EN": "Konyshevka", "NAME_RU": "Конышёвка", "PLACE": "town", "A_CNTR": "RU", "A_RGN": "Курская область", "A_DSTRCT": "Конышёвский район", "A_PSTCD": null, "POPULATION": "4589" }, "geometry": { "type": "Point", "coordinates": [ 35.292703868355595, 51.844731515753523 ] } },
{ "type": "Feature", "properties": { "OSM_ID": 246559783.000000, "NAME": "Чагода", "NAME_EN": null, "NAME_RU": null, "PLACE": "town", "A_CNTR": "RU", "A_RGN": "Вологодская область", "A_DSTRCT": "Чагодощенский район", "A_PSTCD": null, "POPULATION": "6701" }, "geometry": { "type": "Point", "coordinates": [ 35.329082927563881, 59.162283956405801 ] } },
{ "type": "Feature", "properties": { "OSM_ID": 336306283.000000, "NAME": "Сухиничи", "NAME_EN": "Sukhinichi", "NAME_RU": "Сухиничи", "PLACE": "town", "A_CNTR": "RU", "A_RGN": "Калужская область", "A_DSTRCT": "Сухиничский район", "A_PSTCD": null, "POPULATION": "15445" }, "geometry": { "type": "Point", "coordinates": [ 35.345575231628708, 54.098080819790262 ] } },
{ "type": "Feature", "properties": { "OSM_ID": 1420804667.000000, "NAME": "Железногорск", "NAME_EN": null, "NAME_RU": null, "PLACE": "town", "A_CNTR": "RU", "A_RGN": "Курская область", "A_DSTRCT": "городской округ Железногорск", "A_PSTCD": null, "POPULATION": "95000" }, "geometry": { "type": "Point", "coordinates": [ 35.351233363313725, 52.329024350321347 ] } },
{ "type": "Feature", "properties": { "OSM_ID": 410919506.000000, "NAME": "Хотынец", "NAME_EN": null, "NAME_RU": null, "PLACE": "town", "A_CNTR": "RU", "A_RGN": "Орловская область", "A_DSTRCT": "Хотынецкий район", "A_PSTCD": null, "POPULATION": "4404" }, "geometry": { "type": "Point", "coordinates": [ 35.397838926750694, 53.124929031768531 ] } },
{ "type": "Feature", "properties": { "OSM_ID": 356482758.000000, "NAME": "Лихославль", "NAME_EN": "Likhoslavl", "NAME_RU": "Лихославль", "PLACE": "town", "A_CNTR": "RU", "A_RGN": "Тверская область", "A_DSTRCT": "Лихославльский район", "A_PSTCD": null, "POPULATION": "11900" }, "geometry": { "type": "Point", "coordinates": [ 35.466242865345784, 57.122879705405637 ] } },
{ "type": "Feature", "properties": { "OSM_ID": 336140547.000000, "NAME": "имени Карла Либкнехта", "NAME_EN": "Imeni Karla Libknekhta", "NAME_RU": "имени Карла Либкнехта", "PLACE": "town", "A_CNTR": "RU", "A_RGN": "Курская область", "A_DSTRCT": "Курчатовский район", "A_PSTCD": null, "POPULATION": "7704" }, "geometry": { "type": "Point", "coordinates": [ 35.477222063921836, 51.621597051525875 ] } },
{ "type": "Feature", "properties": { "OSM_ID": 256361815.000000, "NAME": "Шаховская", "NAME_EN": null, "NAME_RU": "Шаховская", "PLACE": "town", "A_CNTR": "RU", "A_RGN": "Московская область", "A_DSTRCT": "Шаховской район", "A_PSTCD": null, "POPULATION": "10730" }, "geometry": { "type": "Point", "coordinates": [ 35.509920998271312, 56.029892028533823 ] } },
{ "type": "Feature", "properties": { "OSM_ID": 256361882.000000, "NAME": "Лотошино", "NAME_EN": null, "NAME_RU": "Лотошино", "PLACE": "town", "A_CNTR": "RU", "A_RGN": "Московская область", "A_DSTRCT": "Лотошинский район", "A_PSTCD": null, "POPULATION": "5473" }, "geometry": { "type": "Point", "coordinates": [ 35.639615247857336, 56.227320567406345 ] } },